{
  "last_updated": "24/12/2025 05:58:01",
  "stations": [
    {
      "site_id": "gcw2trbpdxqk",
      "brand": "BP",
      "address": "Birch Service Area, M62 Motorway, Heywood, Lancashire, OL10 2QH",
      "postcode": "OL10 2QH",
      "location": {
        "latitude": 53.5693,
        "longitude": -2.23011
      },
      "prices": {
        "E5": 177.9,
        "E10": 160.9,
        "B7": 170.9,
        "SDV": 187.9
      }
    },
    {
      "site_id": "gcw2tpw2ny66",
      "brand": "BP",
      "address": "Birch Service Area, M62 Motorway, Heywood, Lancashire, OL10 2QH",
      "postcode": "OL10 2QH",
      "location": {
        "latitude": 53.5666,
        "longitude": -2.23234
      },
      "prices": {
        "E5": 177.9,
        "E10": 160.9,
        "B7": 170.9,
        "SDV": 187.9
      }
    },
    {
      "site_id": "gcwh1z1981dv",
      "brand": "BP",
      "address": "Burton Service Area, M6, Burton, West Carnforth, Lancs, LA6 1JF",
      "postcode": "LA6 1JF",
      "location": {
        "latitude": 54.1793,
        "longitude": -2.73353
      },
      "prices": {
        "E5": 177.9,
        "E10": 160.9,
        "B7": 170.9,
        "SDV": 187.9
      }
    },
    {
      "site_id": "gcphdjvyq1jg",
      "brand": "BP",
      "address": "Chieveley Service Area, Oxford Road, Hermitage, Thatcham, Berkshire, RG18 9XX",
      "postcode": "RG18 9XX",
      "location": {
        "latitude": 51.4487,
        "longitude": -1.3102
      },
      "prices": {
        "E5": 177.9,
        "E10": 160.9,
        "B7": 170.9,
        "SDV": 187.9
      }
    },
    {
      "site_id": "gcj890m7sguk",
      "brand": "BP",
      "address": "Exeter Service Area, M5, Sandygate, Exeter, Devon, EX2 7HF",
      "postcode": "EX2 7HF",
      "location": {
        "latitude": 50.7149,
        "longitude": -3.46426
      },
      "prices": {
        "E5": 177.9,
        "E10": 160.9,
        "B7": 170.9,
        "SDV": 187.9
      }
    },
    {
      "site_id": "gcx17pq0g9es",
      "brand": "BP",
      "address": "Ferrybridge Service Area, Junction off A1/M62, Ferrybridge, Knottingley, West Yorks, WF11 0AF",
      "postcode": "WF11 0AF",
      "location": {
        "latitude": 53.6972,
        "longitude": -1.26602
      },
      "prices": {
        "E5": 177.9,
        "E10": 160.9,
        "B7": 170.9,
        "SDV": 187.9
      }
    },
    {
      "site_id": "gcw4cpmkbyxj",
      "brand": "BP",
      "address": "Lancaster Service Area, M6 J32/33, White Carr Lane, Lancaster, LA2 9DU",
      "postcode": "LA2 9DU",
      "location": {
        "latitude": 53.9616,
        "longitude": -2.7613
      },
      "prices": {
        "E5": 167.9,
        "E10": 150.9,
        "B7": 160.9,
        "SDV": 177.9
      }
    },
    {
      "site_id": "gcw4cpx1v5g0",
      "brand": "BP",
      "address": "Lancaster Service Area, M6 J32/33, White Carr Lane, Lancaster, LA2 9DU",
      "postcode": "LA2 9DU",
      "location": {
        "latitude": 53.9624,
        "longitude": -2.75872
      },
      "prices": {
        "E5": 167.9,
        "E10": 150.9,
        "B7": 160.9,
        "SDV": 177.9
      }
    },
    {
      "site_id": "gcqd60d0b93w",
      "brand": "BP",
      "address": "Frankley Service Area, M5, Illey Lane, Birmingham, West Midlands, B32 4AR",
      "postcode": "B32 4AR",
      "location": {
        "latitude": 52.4296,
        "longitude": -2.01871
      },
      "prices": {
        "E5": 157.9,
        "E10": 142.9,
        "B7": 149.9,
        "SDV": 166.9
      }
    },
    {
      "site_id": "gcqd60784dv9",
      "brand": "BP",
      "address": "Frankley Service Area, M5, Illey Lane, Birmingham, West Midlands, B32 4AR",
      "postcode": "B32 4AR",
      "location": {
        "latitude": 52.4281,
        "longitude": -2.01656
      },
      "prices": {
        "E5": 157.9,
        "E10": 142.9,
        "B7": 149.9,
        "SDV": 166.9
      }
    },
    {
      "site_id": "gcpszjnnqfbv",
      "brand": "BP",
      "address": "Heston Service Area, J2/3 M4, Phoenix Way, Hounslow, Middlesex, TW5 9NB",
      "postcode": "TW5 9NB",
      "location": {
        "latitude": 51.4885,
        "longitude": -0.386977
      },
      "prices": {
        "E5": 177.9,
        "E10": 160.9,
        "B7": 170.9,
        "SDV": 187.9
      }
    },
    {
      "site_id": "gcpszj09wq95",
      "brand": "BP",
      "address": "Heston Service Area, J2/3 M4, Phoenix Way, Hounslow, Middlesex, TW5 9NB",
      "postcode": "TW5 9NB",
      "location": {
        "latitude": 51.4877,
        "longitude": -0.394551
      },
      "prices": {
        "E5": 177.9,
        "E10": 160.9,
        "B7": 170.9,
        "SDV": 187.9
      }
    },
    {
      "site_id": "gcqe3psgdu8q",
      "brand": "BP",
      "address": "Hilton Park Service Area, M6 J10a/11, Essington, Wolverhampton, Staffordshire, WV11 2AT",
      "postcode": "WV11 2AT",
      "location": {
        "latitude": 52.6444,
        "longitude": -2.05879
      },
      "prices": {
        "E5": 177.9,
        "E10": 160.9,
        "B7": 170.9,
        "SDV": 187.9
      }
    },
    {
      "site_id": "gcqe3pr883b3",
      "brand": "BP",
      "address": "Hilton Park Service Area, M6 J10a/11, Essington, Wolverhampton, Staffordshire, WV11 2AT",
      "postcode": "WV11 2AT",
      "location": {
        "latitude": 52.6425,
        "longitude": -2.05512
      },
      "prices": {
        "E5": 177.9,
        "E10": 160.9,
        "B7": 170.9,
        "SDV": 187.9
      }
    },
    {
      "site_id": "gcvxc8x4dmsj",
      "brand": "BP",
      "address": "Kinross Service Area, Turfhills Tourist Centre, Kinross, Perthshire, KY13 7NQ",
      "postcode": "KY13 7NQ",
      "location": {
        "latitude": 56.2093,
        "longitude": -3.43999
      },
      "prices": {
        "E5": 177.9,
        "E10": 160.9,
        "B7": 170.9,
        "SDV": 187.9
      }
    },
    {
      "site_id": "gcqr1r4n9f4s",
      "brand": "BP",
      "address": "Knutsford Service Area, M6 J18/19, Off Northwich Road, Knutsford, Cheshire, WA16 0TL",
      "postcode": "WA16 0TL",
      "location": {
        "latitude": 53.3013,
        "longitude": -2.40318
      },
      "prices": {
        "E5": 177.9,
        "E10": 160.9,
        "B7": 170.9,
        "SDV": 187.9
      }
    },
    {
      "site_id": "gcqr1rh1hbn9",
      "brand": "BP",
      "address": "Knutsford Service Area, M6 J18/19, Off Northwich Road, Knutsford, Cheshire, WA16 0TL",
      "postcode": "WA16 0TL",
      "location": {
        "latitude": 53.3003,
        "longitude": -2.4003
      },
      "prices": {
        "E5": 177.9,
        "E10": 160.9,
        "B7": 170.9,
        "SDV": 187.9
      }
    },
    {
      "site_id": "gcnmncq7fjey",
      "brand": "BP",
      "address": "Leigh Delamere Service Area, M4, Chippenham, Wiltshire, SN14 6LB",
      "postcode": "SN14 6LB",
      "location": {
        "latitude": 51.5114,
        "longitude": -2.15563
      },
      "prices": {
        "E5": 177.9,
        "E10": 160.9,
        "B7": 170.9,
        "SDV": 187.9
      }
    },
    {
      "site_id": "gcnmnbcpg9cg",
      "brand": "BP",
      "address": "Leigh Delamere Service Area, M4, Chippenham, Wiltshire, SN14 6LB",
      "postcode": "SN14 6LB",
      "location": {
        "latitude": 51.5094,
        "longitude": -2.16278
      },
      "prices": {
        "E5": 177.9,
        "E10": 160.9,
        "B7": 170.9,
        "SDV": 187.9
      }
    },
    {
      "site_id": "u10kjfe9dtx5",
      "brand": "BP",
      "address": "Medway Service Area, M2 J4/5, Rainham, Gillingham, Kent, ME8 8PQ",
      "postcode": "ME8 8PQ",
      "location": {
        "latitude": 51.3421,
        "longitude": 0.609171
      },
      "prices": {
        "E5": 177.9,
        "E10": 160.9,
        "B7": 170.9,
        "SDV": 187.9
      }
    },
    {
      "site_id": "u10kjf4nvkuj",
      "brand": "BP",
      "address": "Medway Service Area, M2 J4/5, Rainham, Gillingham, Kent, ME8 8PQ",
      "postcode": "ME8 8PQ",
      "location": {
        "latitude": 51.3403,
        "longitude": 0.607225
      },
      "prices": {
        "E5": 177.9,
        "E10": 160.9,
        "B7": 170.9,
        "SDV": 187.9
      }
    },
    {
      "site_id": "gcnjs65s90t8",
      "brand": "BP",
      "address": "Severn View Service Area, M48 J1, Aust, Bristol, South Gloucestershire, BS35 4BH",
      "postcode": "BS35 4BH",
      "location": {
        "latitude": 51.6036,
        "longitude": -2.62088
      },
      "prices": {
        "E5": 177.9,
        "E10": 160.9,
        "B7": 170.9,
        "SDV": 187.9
      }
    },
    {
      "site_id": "gctzwxukfm55",
      "brand": "BP",
      "address": "Southwaite Servie Area, Broadfield Site, M6, Carlisle, Cumbria, CA4 0NT",
      "postcode": "CA4 0NT",
      "location": {
        "latitude": 54.7993,
        "longitude": -2.87248
      },
      "prices": {
        "E5": 177.9,
        "E10": 160.9,
        "B7": 170.9,
        "SDV": 187.9
      }
    },
    {
      "site_id": "gctzwxwsp6eh",
      "brand": "BP",
      "address": "Southwaite Servie Area, Broadfield Site, M6, Carlisle, Cumbria, CA4 0NT",
      "postcode": "CA4 0NT",
      "location": {
        "latitude": 54.7978,
        "longitude": -2.86918
      },
      "prices": {
        "E5": 177.9,
        "E10": 160.9,
        "B7": 170.9,
        "SDV": 187.9
      }
    },
    {
      "site_id": "gcvpnb2wbsx3",
      "brand": "BP",
      "address": "Stirling Serice Area, Pirnhall, Stirling, Scotland, FK7 8EU",
      "postcode": "FK7 8EU",
      "location": {
        "latitude": 56.0768,
        "longitude": -3.9214
      },
      "prices": {
        "E5": 177.9,
        "E10": 160.9,
        "B7": 170.9,
        "SDV": 187.9
      }
    },
    {
      "site_id": "gcjjvpe5uckz",
      "brand": "BP",
      "address": "Swansea Service Area, M4 J47, Penllergaer, Swansea, West Glamorgan, SA4 1GT",
      "postcode": "SA4 1GT",
      "location": {
        "latitude": 51.6776,
        "longitude": -3.99469
      },
      "prices": {
        "E5": 177.9,
        "E10": 160.9,
        "B7": 170.9,
        "SDV": 187.9
      }
    },
    {
      "site_id": "gcpxs8b3xmmc",
      "brand": "BP",
      "address": "Toddington Service Area, M1,Toddington, Bedfordshire, LU5 6HR",
      "postcode": "LU5 6HR",
      "location": {
        "latitude": 51.9478,
        "longitude": -0.504709
      },
      "prices": {
        "E5": 177.9,
        "E10": 160.9,
        "B7": 170.9,
        "SDV": 187.9
      }
    },
    {
      "site_id": "gcpxs8fujt9x",
      "brand": "BP",
      "address": "Toddington Service Area, M1,Toddington, Bedfordshire, LU5 6HR",
      "postcode": "LU5 6HR",
      "location": {
        "latitude": 51.9482,
        "longitude": -0.501356
      },
      "prices": {
        "E5": 177.9,
        "E10": 160.9,
        "B7": 170.9,
        "SDV": 187.9
      }
    },
    {
      "site_id": "gcrj71t43jzk",
      "brand": "BP",
      "address": "Trowell Service Area, M1, Ilkeston, Nottingham, NG9 3PL",
      "postcode": "NG9 3PL",
      "location": {
        "latitude": 52.9628,
        "longitude": -1.26749
      },
      "prices": {
        "E5": 177.9,
        "E10": 160.9,
        "B7": 170.9,
        "SDV": 187.9
      }
    },
    {
      "site_id": "gcrj71mfbb5k",
      "brand": "BP",
      "address": "Trowell Service Area, M1, Ilkeston, Nottingham, NG9 3PL",
      "postcode": "NG9 3PL",
      "location": {
        "latitude": 52.9614,
        "longitude": -1.26648
      },
      "prices": {
        "E5": 177.9,
        "E10": 160.9,
        "B7": 170.9,
        "SDV": 187.9
      }
    },
    {
      "site_id": "gcybk82nyeds",
      "brand": "BP",
      "address": "Washington Service Area, A1, Portobello, Birtley, Co Durham, DH3 2SJ",
      "postcode": "DH3 2SJ",
      "location": {
        "latitude": 54.8902,
        "longitude": -1.55978
      },
      "prices": {
        "E5": 177.9,
        "E10": 160.9,
        "B7": 170.9,
        "SDV": 187.9
      }
    },
    {
      "site_id": "gcybk81phm6x",
      "brand": "BP",
      "address": "Washington Service Area, A1, Portobello, Birtley, Co Durham, DH3 2SJ",
      "postcode": "DH3 2SJ",
      "location": {
        "latitude": 54.8889,
        "longitude": -1.5585
      },
      "prices": {
        "E5": 177.9,
        "E10": 160.9,
        "B7": 170.9,
        "SDV": 187.9
      }
    },
    {
      "site_id": "gcwchc8j0fcr",
      "brand": "BP",
      "address": "Woolley Edge Service Area, M1, West Bretton, Wakefield, Yorkshire, WF4 4LQ",
      "postcode": "WF4 4LQ",
      "location": {
        "latitude": 53.6224,
        "longitude": -1.54904
      },
      "prices": {
        "E5": 177.9,
        "E10": 160.9,
        "B7": 170.9,
        "SDV": 187.9
      }
    },
    {
      "site_id": "gcwchc39n49k",
      "brand": "BP",
      "address": "Woolley Edge Service Area, M1, West Bretton, Wakefield, Yorkshire, WF4 4LQ",
      "postcode": "WF4 4LQ",
      "location": {
        "latitude": 53.6203,
        "longitude": -1.54675
      },
      "prices": {
        "E5": 177.9,
        "E10": 160.9,
        "B7": 170.9,
        "SDV": 187.9
      }
    },
    {
      "site_id": "gcrt0x1sscpv",
      "brand": "BP",
      "address": "Grantham Service Area, A1, Goneryby Moor, Grantham, lincolnshire, NG32 2AB",
      "postcode": "NG32 2AB",
      "location": {
        "latitude": 52.9494,
        "longitude": -0.678878
      },
      "prices": {
        "E5": 177.9,
        "E10": 160.9,
        "B7": 170.9,
        "SDV": 187.9
      }
    },
    {
      "site_id": "gcpfee8n5w4y",
      "brand": "BP",
      "address": "Pease Pottage Service Area, Brighton Road, Pease Pottage, Crawley, West Sussex, RH11 9YA",
      "postcode": "RH11 9YA",
      "location": {
        "latitude": 51.0847,
        "longitude": -0.1976
      },
      "prices": {
        "E5": 177.9,
        "E10": 160.9,
        "B7": 170.9,
        "SDV": 187.9
      }
    },
    {
      "site_id": "gcrhd0ngnp51",
      "brand": "BP",
      "address": "Donington Service Area, M1 J23a, Castle Donington, Derby, East Midlands, DE74 2TN",
      "postcode": "DE74 2TN",
      "location": {
        "latitude": 52.8228,
        "longitude": -1.30883
      },
      "prices": {
        "E5": 177.9,
        "E10": 160.9,
        "B7": 170.9,
        "SDV": 187.9
      }
    },
    {
      "site_id": "gcx2ckndt6w4",
      "brand": "BP",
      "address": "Doncaster Service Area, M18 J5, Hatfield, Doncaster, DN8 5GS",
      "postcode": "DN8 5GS",
      "location": {
        "latitude": 53.5918,
        "longitude": -0.990596
      },
      "prices": {
        "E5": 177.9,
        "E10": 160.9,
        "B7": 170.9,
        "SDV": 187.9
      }
    },
    {
      "site_id": "gcqpwcy97rur",
      "brand": "BP",
      "address": "Lymm Service Area, Cliffe Lane, Lymm, Cheshire, WA13 0SP",
      "postcode": "WA13 0SP",
      "location": {
        "latitude": 53.3595,
        "longitude": -2.5068
      },
      "prices": {
        "E5": 177.9,
        "E10": 160.9,
        "B7": 170.9,
        "SDV": 187.9
      }
    },
    {
      "site_id": "gcjfez740k83",
      "brand": "BP",
      "address": "Bridgwater Service Area, M5 J24, Huntsworth Business Park, Bridgwater, Somerset, TA6 6TS",
      "postcode": "TA6 6TS",
      "location": {
        "latitude": 51.1046,
        "longitude": -2.99514
      },
      "prices": {
        "E5": 177.9,
        "E10": 160.9,
        "B7": 170.9,
        "SDV": 187.9
      }
    },
    {
      "site_id": "gcj9etjc2ccq",
      "brand": "BP",
      "address": "Tiverton Service Area, M5 J27, Tiverton, Devon, EX16 7HD",
      "postcode": "EX16 7HD",
      "location": {
        "latitude": 50.9164,
        "longitude": -3.35389
      },
      "prices": {
        "E5": 157.9,
        "E10": 140.9,
        "B7": 150.9,
        "SDV": 167.9
      }
    },
    {
      "site_id": "gcn7mgyp081h",
      "brand": "BP",
      "address": "Warminster Service Area, A36 Bypass, Warminster, Wiltshire, BA12 7RU",
      "postcode": "BA12 7RU",
      "location": {
        "latitude": 51.2181,
        "longitude": -2.19999
      },
      "prices": {
        "E5": 154.9,
        "E10": 137.9,
        "B7": 144.9,
        "SDV": 161.9
      }
    },
    {
      "site_id": "gbuyzdepdrfy",
      "brand": "BP",
      "address": "Saltash Service Area, Callington Road, Carkell, Cornwall, PL12 6LF",
      "postcode": "PL12 6LF",
      "location": {
        "latitude": 50.4203,
        "longitude": -4.2365
      },
      "prices": {
        "E5": 157.9,
        "E10": 140.9,
        "B7": 150.9,
        "SDV": 167.9
      }
    },
    {
      "site_id": "gcx4bu652mnj",
      "brand": "BP",
      "address": "Wetherby Service Area, J46 A1M, Wetherby, North Yorkshire, LS22 5GT",
      "postcode": "LS22 5GT",
      "location": {
        "latitude": 53.9448,
        "longitude": -1.37053
      },
      "prices": {
        "E5": 177.9,
        "E10": 160.9,
        "B7": 170.9,
        "SDV": 187.9
      }
    },
    {
      "site_id": "gcwuukfhm95m",
      "brand": "BP",
      "address": "Leeming Bar Service Area, Great North Road, J51 A1M, Leeming Bar, Bedale, DL8 1DT",
      "postcode": "DL8 1DT",
      "location": {
        "latitude": 54.2993,
        "longitude": -1.56806
      },
      "prices": {
        "E5": 155.9,
        "E10": 138.9,
        "B7": 149.9,
        "SDV": 166.9
      }
    },
    {
      "site_id": "gcwvf5k6q98t",
      "brand": "BP",
      "address": "Barton Service Area, Off A1(M), Barton, Near Richmond, North Yorks, DL10 6NA",
      "postcode": "DL10 6NA",
      "location": {
        "latitude": 54.4665,
        "longitude": -1.66381
      },
      "prices": {
        "E5": 177.9,
        "E10": 160.9,
        "B7": 170.9,
        "SDV": 187.9
      }
    },
    {
      "site_id": "gcr45th3dcmx",
      "brand": "BP",
      "address": "New Ash Tree Farm, Leicester Road, Churchover, Rugby, CV23 OEZ",
      "postcode": "CV23 0EZ",
      "location": {
        "latitude": 52.4105,
        "longitude": -1.24648
      },
      "prices": {
        "E5": 177.9,
        "E10": 160.9,
        "B7": 170.9,
        "SDV": 187.9
      }
    },
    {
      "site_id": "gcrf1zgmcnrk",
      "brand": "BP",
      "address": "Moto Sawtry, A1 Junction 15, Toll Bar, great North Road, Sawtry, Huntingdon, PE28 5XW",
      "postcode": "PE28 5XW",
      "location": {
        "latitude": 52.4398,
        "longitude": -0.28422
      },
      "prices": {
        "E5": 177.9,
        "E10": 160.9,
        "B7": 170.9,
        "SDV": 187.9
      }
    }
  ]
}