{
  "last_updated": "23/12/2025 00:00:01",
  "stations": [
    {
      "site_id": "gcp6cwwx0tje",
      "brand": "BP",
      "address": "MFG Alton, Butts Road, Alton",
      "postcode": "GU34 1LH",
      "location": {
        "latitude": 51.145333,
        "longitude": -0.979814
      },
      "prices": {
        "E10": 136.9,
        "E5": 155.9,
        "B7": 146.9,
        "SDV": 165.9
      }
    },
    {
      "site_id": "gcpvq33ud3v8",
      "brand": "BP",
      "address": "MFG Ambassador, 144 - 150 Stoke Newington Road, Stoke Newington",
      "postcode": "N16 7XA",
      "location": {
        "latitude": 51.5555,
        "longitude": -0.074397
      },
      "prices": {
        "E10": 139.9,
        "E5": 155.9,
        "B7": 147.9,
        "SDV": 165.9
      }
    },
    {
      "site_id": "gcpt1f1w6e3b",
      "brand": "Jet",
      "address": "MFG Bath Road, 230 Bath Road, Slough",
      "postcode": "SL1 4DX",
      "location": {
        "latitude": 51.515983,
        "longitude": -0.624051
      },
      "prices": {
        "E10": 137.9,
        "E5": 149.9,
        "B7": 146.9,
        "SDV": 159.9
      }
    },
    {
      "site_id": "gcn8w4dqws5z",
      "brand": "Esso",
      "address": "MFG Boscombe, 25-33 Palmerston Road, Bournemouth",
      "postcode": "BH1 4HN",
      "location": {
        "latitude": 50.727762,
        "longitude": -1.842329
      },
      "prices": {
        "E10": 135.9,
        "E5": 155.9,
        "B7": 146.9,
        "SDV": 165.9
      }
    },
    {
      "site_id": "gcvwcqkvrgsp",
      "brand": "BP",
      "address": "MFG Bothwell, Bothwell Street, Dunfermline",
      "postcode": "KY11 3AF",
      "location": {
        "latitude": 56.065527,
        "longitude": -3.453832
      },
      "prices": {
        "E10": 135.9,
        "E5": 155.9,
        "B7": 146.9,
        "SDV": 165.9
      }
    },
    {
      "site_id": "gcnx33vv110z",
      "brand": "Murco",
      "address": "MFG Bouncers Lane, Bouncers Lane, Prestbury",
      "postcode": "GL52 5JF",
      "location": {
        "latitude": 51.909892,
        "longitude": -2.046503
      },
      "prices": {
        "E10": 132.9,
        "E5": 149.9,
        "B7": 141.9,
        "SDV": 159.9
      }
    },
    {
      "site_id": "u10f892c5cws",
      "brand": "Esso",
      "address": "MFG Central Garage, MILITARY ROAD, HYTHE",
      "postcode": "CT21 5DD",
      "location": {
        "latitude": 51.0715,
        "longitude": 1.07786
      },
      "prices": {
        "E10": 134.9,
        "E5": 155.9,
        "B7": 146.9,
        "SDV": 165.9
      }
    },
    {
      "site_id": "gcrh5kgv7yvb",
      "brand": "BP",
      "address": "MFG Charnwood, Ashby Road, Loughborough",
      "postcode": "LE11 3QU",
      "location": {
        "latitude": 52.761405,
        "longitude": -1.258109
      },
      "prices": {
        "E10": 135.9,
        "E5": 155.9,
        "B7": 145.9,
        "SDV": 165.9
      }
    },
    {
      "site_id": "gcq6zfc3gg5t",
      "brand": "Texaco",
      "address": "MFG Clarence Street, Clarence Street, Dudley",
      "postcode": "DY3 1UP",
      "location": {
        "latitude": 52.530072,
        "longitude": -2.118479
      },
      "prices": {
        "E10": 134.9,
        "E5": 149.9,
        "B7": 143.9,
        "SDV": 159.9
      }
    },
    {
      "site_id": "u10k8s8f9y9q",
      "brand": "Esso",
      "address": "MFG Clock Tower, 133- 139 Milton Road, Gravesend",
      "postcode": "DA12 2RQ",
      "location": {
        "latitude": 51.4412,
        "longitude": 0.374642
      },
      "prices": {
        "E10": 136.9,
        "E5": 155.9,
        "B7": 147.9,
        "SDV": 165.9
      }
    },
    {
      "site_id": "gcw0feu7b7zj",
      "brand": "BP",
      "address": "MFG Crow Orchard, Mossy Lea Road, Wrightington",
      "postcode": "WN6 9RB",
      "location": {
        "latitude": 53.5906,
        "longitude": -2.69678
      },
      "prices": {
        "E10": 139.9,
        "E5": 155.9,
        "B7": 149.9,
        "SDV": 165.9
      }
    },
    {
      "site_id": "gcpfzew9ws1e",
      "brand": "Jet",
      "address": "MFG East Grinstead, 147-149 London Road, East Grinstead",
      "postcode": "RH19 1ET",
      "location": {
        "latitude": 51.127904,
        "longitude": -0.012765
      },
      "prices": {
        "E10": 132.9,
        "E5": 149.9,
        "B7": 142.9,
        "SDV": 159.9
      }
    },
    {
      "site_id": "gcptr66chg0y",
      "brand": "ESSO",
      "address": "MFG Eastcote, 726 Field End Road, Ruislip",
      "postcode": "HA4 0QP",
      "location": {
        "latitude": 51.5604,
        "longitude": -0.38054
      },
      "prices": {
        "E10": 135.9,
        "E5": 155.9,
        "B7": 141.9,
        "SDV": 165.9
      }
    },
    {
      "site_id": "gcvwrtfkvgn2",
      "brand": "BP",
      "address": "MFG Ferry Road, 77 Ferry Road, Edinburgh",
      "postcode": "EH6 4AQ",
      "location": {
        "latitude": 55.9748,
        "longitude": -3.18269
      },
      "prices": {
        "E10": 135.9,
        "E5": 155.9,
        "B7": 144.9,
        "SDV": 165.9
      }
    },
    {
      "site_id": "gcpf7qt3p1j7",
      "brand": "BP",
      "address": "MFG Handcross, A23 Southbound / Brighton Road, Haywards Heath",
      "postcode": "RH17 6BL",
      "location": {
        "latitude": 51.056391,
        "longitude": -0.201223
      },
      "prices": {
        "E10": 139.9,
        "E5": 155.9,
        "B7": 149.9,
        "SDV": 165.9
      }
    },
    {
      "site_id": "gcpcswcgkcsz",
      "brand": "Esso",
      "address": "MFG Hassocks, London Road, Hassocks",
      "postcode": "BN6 9NZ",
      "location": {
        "latitude": 50.926318,
        "longitude": -0.151195
      },
      "prices": {
        "E10": 138.9,
        "E5": 155.9,
        "B7": 147.9,
        "SDV": 165.9
      }
    },
    {
      "site_id": "gcp7yce1xbf2",
      "brand": "Jet",
      "address": "MFG Kingsmead, 205 Farnborough Road, Farnborough",
      "postcode": "GU14 7JT",
      "location": {
        "latitude": 51.292681,
        "longitude": -0.753601
      },
      "prices": {
        "E10": 134.9,
        "E5": 149.9,
        "B7": 143.9,
        "SDV": 159.9
      }
    },
    {
      "site_id": "gcueqv4wjb7h",
      "brand": "BP",
      "address": "MFG Kyle, 22-26 Maybole Road, Ayr",
      "postcode": "KA7 2QA",
      "location": {
        "latitude": 55.443537,
        "longitude": -4.62156
      },
      "prices": {
        "E10": 133.9,
        "B7": 141.9,
        "SDV": 165.9
      }
    },
    {
      "site_id": "gcnrjemuwfyz",
      "brand": "Esso",
      "address": "MFG Longlevens, 131 Cheltenham Road, Longlevens",
      "postcode": "GL2 0JH",
      "location": {
        "latitude": 51.87411,
        "longitude": -2.211043
      },
      "prices": {
        "E10": 135.9,
        "E5": 155.9,
        "B7": 143.9,
        "SDV": 165.9
      }
    },
    {
      "site_id": "u10j1z2vxu8b",
      "brand": "Esso",
      "address": "MFG Loxford, 433 Ilford Lane, Ilford",
      "postcode": "IG1 2PG",
      "location": {
        "latitude": 51.5447,
        "longitude": 0.078268
      },
      "prices": {
        "E10": 135.9,
        "E5": 155.9,
        "B7": 144.9,
        "SDV": 165.9
      }
    },
    {
      "site_id": "gcw82027ksqk",
      "brand": "BP",
      "address": "MFG Maynestone, Manchester Road, Ashton Under Lyne",
      "postcode": "OL7 0DA",
      "location": {
        "latitude": 53.4834,
        "longitude": -2.10883
      },
      "prices": {
        "E10": 133.9,
        "E5": 155.9,
        "B7": 143.9,
        "SDV": 165.9
      }
    },
    {
      "site_id": "u10s0emy338p",
      "brand": "BP",
      "address": "MFG Milton Regis, ST PAUL'S STREET, MILTON REGIS",
      "postcode": "ME10 2LA",
      "location": {
        "latitude": 51.34706,
        "longitude": 0.733048
      },
      "prices": {
        "E10": 137.9,
        "E5": 155.9,
        "B7": 146.9,
        "SDV": 165.9
      }
    },
    {
      "site_id": "gcpeee7wd00n",
      "brand": "BP",
      "address": "MFG Pantiles, 224 London Road, Guildford",
      "postcode": "GU4 7HR",
      "location": {
        "latitude": 51.259204,
        "longitude": -0.544424
      },
      "prices": {
        "E10": 133.9,
        "E5": 155.9,
        "B7": 144.9,
        "SDV": 165.9
      }
    },
    {
      "site_id": "gcntx85bn2t6",
      "brand": "BP",
      "address": "MFG Penhill, 568-574 Cricklade Road, Penhill",
      "postcode": "SN2 7AS",
      "location": {
        "latitude": 51.5918,
        "longitude": -1.77436
      },
      "prices": {
        "E10": 135.9,
        "E5": 155.9,
        "B7": 144.9,
        "SDV": 165.9
      }
    },
    {
      "site_id": "gcuvtxgjed4r",
      "brand": "BP",
      "address": "MFG Shieldhall, 31 Shieldhall Road, Glasgow",
      "postcode": "G51 4XB",
      "location": {
        "latitude": 55.854075,
        "longitude": -4.32434
      },
      "prices": {
        "E10": 136.9,
        "E5": 155.9,
        "B7": 146.9,
        "SDV": 165.9
      }
    },
    {
      "site_id": "gcrn0204krqf",
      "brand": "BP",
      "address": "MFG Swanwick, Old Swanwick Colliery Road, Alfreton",
      "postcode": "DE55 1HJ",
      "location": {
        "latitude": 53.086363,
        "longitude": -1.395072
      },
      "prices": {
        "E10": 136.9,
        "E5": 155.9,
        "B7": 144.9,
        "SDV": 165.9
      }
    },
    {
      "site_id": "gcpc3nt6059h",
      "brand": "Esso",
      "address": "MFG Upper Beeding, High Street, Upper Beeding",
      "postcode": "BN44 3TQ",
      "location": {
        "latitude": 50.880795,
        "longitude": -0.300406
      },
      "prices": {
        "E10": 136.9,
        "E5": 155.9,
        "B7": 144.9,
        "SDV": 165.9
      }
    },
    {
      "site_id": "gcvjef3xhvwf",
      "brand": "BP",
      "address": "MFG View Park, 783 Old Edinburgh Road, Bellshill",
      "postcode": "ML4 3HN",
      "location": {
        "latitude": 55.824138,
        "longitude": -4.051682
      },
      "prices": {
        "E10": 137.9,
        "E5": 155.9,
        "B7": 147.9
      }
    },
    {
      "site_id": "gcqdfpmtmtef",
      "brand": "Esso",
      "address": "MFG Wednesbury, Walsall Street, Wednesbury",
      "postcode": "WS10 9HA",
      "location": {
        "latitude": 52.555405,
        "longitude": -2.01369
      },
      "prices": {
        "E10": 134.9,
        "E5": 155.9,
        "B7": 144.9,
        "SDV": 165.9
      }
    },
    {
      "site_id": "gcqdptu29ckz",
      "brand": "Esso",
      "address": "MFG Brueton Park, WARWICK ROAD, SOLIHULL",
      "postcode": "B91 3DD",
      "location": {
        "latitude": 52.414492,
        "longitude": -1.773867
      },
      "prices": {
        "E10": 133.9,
        "E5": 155.9,
        "B7": 143.9,
        "SDV": 165.9
      }
    },
    {
      "site_id": "gcqfjk3ye5rc",
      "brand": "Esso",
      "address": "MFG Butts Road, Butts Road, Coventry",
      "postcode": "CV1 3GU",
      "location": {
        "latitude": 52.407292,
        "longitude": -1.524557
      },
      "prices": {
        "E10": 136.9,
        "E5": 155.9,
        "B7": 144.9,
        "SDV": 165.9
      }
    },
    {
      "site_id": "gcuvzcwrmsmk",
      "brand": "BP",
      "address": "MFG Craigpark, 432 Alexandra Parade, Glasgow",
      "postcode": "G31 3AA",
      "location": {
        "latitude": 55.864,
        "longitude": -4.22091
      },
      "prices": {
        "E10": 133.9,
        "E5": 155.9,
        "B7": 143.9,
        "SDV": 165.9
      }
    },
    {
      "site_id": "gcrscwy6rkkq",
      "brand": "BP",
      "address": "MFG Somerby Hill, Bridge End Road, Grantham",
      "postcode": "NG31 7ET",
      "location": {
        "latitude": 52.9037,
        "longitude": -0.628307
      },
      "prices": {
        "E10": 134.9,
        "E5": 155.9,
        "B7": 142.9,
        "SDV": 165.9
      }
    },
    {
      "site_id": "gcqde0rsz1w8",
      "brand": "Jet",
      "address": "MFG Hagley Road, 477-489 Hagley Road, Smethwick",
      "postcode": "B66 4AU",
      "location": {
        "latitude": 52.4729,
        "longitude": -1.96693
      },
      "prices": {
        "E10": 134.9,
        "E5": 149.9,
        "B7": 144.9,
        "SDV": 159.9
      }
    },
    {
      "site_id": "gcqe1x3gynut",
      "brand": "Jet",
      "address": "MFG Lane Head, High Road, Willenhall",
      "postcode": "WV12 4JQ",
      "location": {
        "latitude": 52.5991,
        "longitude": -2.04079
      },
      "prices": {
        "E10": 134.9,
        "E5": 149.9,
        "B7": 142.9
      }
    },
    {
      "site_id": "gcre1q6gfdrz",
      "brand": "ESSO",
      "address": "MFG Morcott, Glaston Road, Morcott",
      "postcode": "LE15 9DL",
      "location": {
        "latitude": 52.593583,
        "longitude": -0.644299
      },
      "prices": {
        "E10": 134.9,
        "E5": 155.9,
        "B7": 143.9,
        "SDV": 165.9
      }
    },
    {
      "site_id": "gcn8xnqmmjrs",
      "brand": "Murco",
      "address": "MFG Fairmile, 204 Fairmile Road, Christchurch",
      "postcode": "BH23 2LP",
      "location": {
        "latitude": 50.748153,
        "longitude": -1.79295
      },
      "prices": {
        "E10": 134.9,
        "E5": 149.9,
        "B7": 145.9,
        "SDV": 159.9
      }
    },
    {
      "site_id": "gcpedckyupd9",
      "brand": "Esso",
      "address": "MFG Demon, Ladymead, Guildford",
      "postcode": "GU1 1BZ",
      "location": {
        "latitude": 51.2483,
        "longitude": -0.575577
      },
      "prices": {
        "E10": 134.9,
        "E5": 155.9,
        "B7": 144.9,
        "SDV": 165.9
      }
    },
    {
      "site_id": "gcpwmwp3pnfc",
      "brand": "Esso",
      "address": "MFG Everest Way, Adeyfield Road, Hemel Hempstead",
      "postcode": "HP2 5EB",
      "location": {
        "latitude": 51.7568,
        "longitude": -0.451165
      },
      "prices": {
        "E10": 134.9,
        "E5": 155.9,
        "B7": 144.9,
        "SDV": 165.9
      }
    },
    {
      "site_id": "gcqdgyw687hs",
      "brand": "Esso",
      "address": "MFG Great Barr, 76 Birmingham Road, Great Barr",
      "postcode": "B43 6NT",
      "location": {
        "latitude": 52.5508,
        "longitude": -1.93598
      },
      "prices": {
        "E10": 131.9,
        "E5": 155.9,
        "B7": 142.9,
        "SDV": 165.9
      }
    },
    {
      "site_id": "u10dj3y7j3u2",
      "brand": "Esso",
      "address": "MFG New Romney, High Street, New Romney",
      "postcode": "TN28 8AZ",
      "location": {
        "latitude": 50.9867,
        "longitude": 0.942652
      },
      "prices": {
        "E10": 137.9,
        "E5": 155.9,
        "B7": 149.9,
        "SDV": 165.9
      }
    },
    {
      "site_id": "u100bn4q8xfs",
      "brand": "Esso",
      "address": "MFG Peacehaven, 180 South Coast Road, Peacehaven",
      "postcode": "BN10 8JJ",
      "location": {
        "latitude": 50.790953,
        "longitude": 0.003115
      },
      "prices": {
        "E10": 133.9,
        "E5": 155.9,
        "B7": 145.9,
        "SDV": 165.9
      }
    },
    {
      "site_id": "u12gqnhsndc7",
      "brand": "BP",
      "address": "MFG Plumstead Road, Plumstead Road, Norwich",
      "postcode": "NR1 4JT",
      "location": {
        "latitude": 52.6362,
        "longitude": 1.32482
      },
      "prices": {
        "E10": 134.9,
        "E5": 155.9,
        "B7": 144.9,
        "SDV": 165.9
      }
    },
    {
      "site_id": "gbvrp053rkcr",
      "brand": "Esso",
      "address": "MFG Riviera, 376 - 384 Torquay Road, Paignton",
      "postcode": "TQ3 2DN",
      "location": {
        "latitude": 50.44946,
        "longitude": -3.554794
      },
      "prices": {
        "E10": 134.9,
        "E5": 155.9,
        "B7": 145.9,
        "SDV": 165.9
      }
    },
    {
      "site_id": "gcptmfuwkdr1",
      "brand": "Esso",
      "address": "MFG Swakeleys, 12 Long Lane, Ickenham",
      "postcode": "UB10 8TB",
      "location": {
        "latitude": 51.564043,
        "longitude": -0.444057
      },
      "prices": {
        "E10": 136.9,
        "E5": 155.9,
        "B7": 144.9,
        "SDV": 165.9
      }
    },
    {
      "site_id": "gcqvnsm4fhu1",
      "brand": "BP",
      "address": "MFG Whittleway, Sir Frank Whittle Road, Derby",
      "postcode": "DE21 4RX",
      "location": {
        "latitude": 52.934,
        "longitude": -1.46521
      },
      "prices": {
        "E10": 136.9,
        "E5": 155.9,
        "B7": 146.9,
        "SDV": 165.9
      }
    },
    {
      "site_id": "gcped9b7m05s",
      "brand": "Esso",
      "address": "MFG Woodbridge Hill, 56A Aldershot Road, Guildford",
      "postcode": "GU2 8AG",
      "location": {
        "latitude": 51.250406,
        "longitude": -0.592699
      },
      "prices": {
        "E10": 134.9,
        "E5": 155.9,
        "B7": 145.9,
        "SDV": 165.9
      }
    },
    {
      "site_id": "gcw1xkjc0zjp",
      "brand": "Esso",
      "address": "MFG Ewood, Bolton Road, Blackburn",
      "postcode": "BB2 4LA",
      "location": {
        "latitude": 53.723355,
        "longitude": -2.485961
      },
      "prices": {
        "E10": 133.9,
        "E5": 155.9,
        "B7": 145.9,
        "SDV": 165.9
      }
    },
    {
      "site_id": "u103kfc7vf1k",
      "brand": "Esso",
      "address": "MFG Bohemia, Bohemia Road, St Leonards-on-Sea",
      "postcode": "TN37 6RR",
      "location": {
        "latitude": 50.860488,
        "longitude": 0.562268
      },
      "prices": {
        "E10": 131.9,
        "E5": 155.9,
        "B7": 143.9,
        "SDV": 165.9
      }
    },
    {
      "site_id": "gcrg40ewu85j",
      "brand": "Esso",
      "address": "MFG Woodston, Oundle Road, Woodston",
      "postcode": "PE2 9QP",
      "location": {
        "latitude": 52.5625,
        "longitude": -0.258668
      },
      "prices": {
        "E10": 133.9,
        "E5": 155.9,
        "B7": 142.9,
        "SDV": 165.9
      }
    },
    {
      "site_id": "u1226212c923",
      "brand": "Esso",
      "address": "MFG Haverhill, Sturmer Road, Haverhill",
      "postcode": "CB9 7UU",
      "location": {
        "latitude": 52.075331,
        "longitude": 0.452221
      },
      "prices": {
        "E10": 136.9,
        "E5": 155.9,
        "B7": 143.9,
        "SDV": 165.9
      }
    },
    {
      "site_id": "gcp46q1h40be",
      "brand": "Esso",
      "address": "MFG Winchester, Bar End Road, Winchester",
      "postcode": "SO23 9NP",
      "location": {
        "latitude": 51.054158,
        "longitude": -1.305913
      },
      "prices": {
        "E10": 134.9,
        "E5": 155.9,
        "B7": 144.9,
        "SDV": 165.9
      }
    },
    {
      "site_id": "u10jk39keng0",
      "brand": "Esso",
      "address": "MFG Hornchurch, The Cardrome / Upper Rainham Road, Hornchurch",
      "postcode": "RM12 4BZ",
      "location": {
        "latitude": 51.5569,
        "longitude": 0.188617
      },
      "prices": {
        "E10": 136.9,
        "E5": 155.9,
        "B7": 145.9,
        "SDV": 165.9
      }
    },
    {
      "site_id": "u10m19cf4vev",
      "brand": "Esso",
      "address": "MFG Stanford-le-Hope, London Road, Stanford Le Hope",
      "postcode": "SS17 0LD",
      "location": {
        "latitude": 51.513893,
        "longitude": 0.420007
      },
      "prices": {
        "E10": 132.9,
        "E5": 155.9,
        "B7": 142.9,
        "SDV": 165.9
      }
    },
    {
      "site_id": "gcpmxwq7q39j",
      "brand": "Jet",
      "address": "MFG High Wycombe, Micklefield Road, High Wycombe",
      "postcode": "HP13 7EX",
      "location": {
        "latitude": 51.626696,
        "longitude": -0.716245
      },
      "prices": {
        "E10": 134.9,
        "E5": 149.9,
        "B7": 144.9,
        "SDV": 159.9
      }
    },
    {
      "site_id": "u10h6qhj56rc",
      "brand": "Jet",
      "address": "MFG St. Pauls Cray, Chipperfield Road, St.Pauls Cray",
      "postcode": "BR5 2QR",
      "location": {
        "latitude": 51.4059,
        "longitude": 0.10452
      },
      "prices": {
        "E10": 135.9,
        "E5": 149.9,
        "B7": 145.9,
        "SDV": 159.9
      }
    },
    {
      "site_id": "gcqfjbwr1ejx",
      "brand": "Texaco",
      "address": "MFG Coventry, Blackprince Avenue, Coventry",
      "postcode": "CV3 5JE",
      "location": {
        "latitude": 52.386778,
        "longitude": -1.496472
      },
      "prices": {
        "E10": 136.9,
        "E5": 149.9,
        "B7": 144.9,
        "SDV": 159.9
      }
    },
    {
      "site_id": "gcrd8fem9dgq",
      "brand": "Jet",
      "address": "MFG Corby, Geddington Road, Corby",
      "postcode": "NN18 8AA",
      "location": {
        "latitude": 52.485396,
        "longitude": -0.665634
      },
      "prices": {
        "E10": 134.9,
        "E5": 149.9,
        "B7": 143.9,
        "SDV": 159.9
      }
    },
    {
      "site_id": "gcx0u8q72hsk",
      "brand": "Jet",
      "address": "MFG Adwick Le Street, Lutterworth Drive, Adwick Le Street, Doncaster",
      "postcode": "DN6 7BX",
      "location": {
        "latitude": 53.571292,
        "longitude": -1.199907
      },
      "prices": {
        "E10": 135.9,
        "E5": 149.9,
        "B7": 145.9,
        "SDV": 159.9
      }
    },
    {
      "site_id": "gcqu72fb7wt8",
      "brand": "Jet",
      "address": "MFG Burton on Trent, 290 Stanton Road, Burton on Trent",
      "postcode": "DE15 9SQ",
      "location": {
        "latitude": 52.782518,
        "longitude": -1.611056
      },
      "prices": {
        "E10": 134.9,
        "E5": 149.9,
        "B7": 144.9,
        "SDV": 159.9
      }
    },
    {
      "site_id": "gcw2qk9e5gy6",
      "brand": "Texaco",
      "address": "MFG Newton Heath, St.Marys Road, Newton Heath",
      "postcode": "M40 3AR",
      "location": {
        "latitude": 53.5067,
        "longitude": -2.18405
      },
      "prices": {
        "E10": 133.9,
        "E5": 149.9,
        "B7": 143.9,
        "SDV": 159.9
      }
    },
    {
      "site_id": "gcqe6h37g3qg",
      "brand": "Jet",
      "address": "MFG Bloxwich, Tintern Crescent, Bloxwich",
      "postcode": "WS3 2TZ",
      "location": {
        "latitude": 52.626536,
        "longitude": -2.019619
      },
      "prices": {
        "E10": 134.9,
        "E5": 149.9,
        "B7": 142.9,
        "SDV": 159.9
      }
    },
    {
      "site_id": "gcpmpfc1pfbq",
      "brand": "Esso",
      "address": "MFG Forlease Road, 101 Forlease Road, Maidenhead",
      "postcode": "SL6 1UB",
      "location": {
        "latitude": 51.5192,
        "longitude": -0.712405
      },
      "prices": {
        "E10": 137.9,
        "E5": 155.9,
        "B7": 147.9,
        "SDV": 165.9
      }
    },
    {
      "site_id": "gcqzmf6x9enu",
      "brand": "Esso",
      "address": "MFG Bradway, 120 Bradway Road, Sheffield",
      "postcode": "S17 4QW",
      "location": {
        "latitude": 53.319328,
        "longitude": -1.50162
      },
      "prices": {
        "E10": 132.9,
        "E5": 155.9,
        "B7": 141.9,
        "SDV": 165.9
      }
    },
    {
      "site_id": "gcp9psgffhnk",
      "brand": "Esso",
      "address": "MFG Worthing, Sompting Avenue, Worthing",
      "postcode": "BN14 8HP",
      "location": {
        "latitude": 50.827368,
        "longitude": -0.368291
      },
      "prices": {
        "E10": 136.9,
        "E5": 155.9,
        "B7": 144.9,
        "SDV": 165.9
      }
    },
    {
      "site_id": "gcx2bfkunekf",
      "brand": "Jet",
      "address": "MFG Dunscroft, 137 Station Road, Dunscroft, Doncaster",
      "postcode": "DN7 4JP",
      "location": {
        "latitude": 53.5824,
        "longitude": -1.01492
      },
      "prices": {
        "E10": 134.9,
        "E5": 149.9,
        "B7": 144.9,
        "SDV": 159.9
      }
    },
    {
      "site_id": "gcqdx4jr4t12",
      "brand": "Jet",
      "address": "MFG Stechford, Flaxley Road, Stechford, Birmingham",
      "postcode": "B33 9AL",
      "location": {
        "latitude": 52.482918,
        "longitude": -1.794439
      },
      "prices": {
        "E10": 133.9,
        "E5": 149.9,
        "B7": 142.9
      }
    },
    {
      "site_id": "gcqmyjdcwypu",
      "brand": "Jet",
      "address": "MFG Stoke on Trent, Biddulph Road, Stoke on Trent",
      "postcode": "ST6 6SH",
      "location": {
        "latitude": 53.072495,
        "longitude": -2.193189
      },
      "prices": {
        "E10": 132.9,
        "E5": 149.9,
        "B7": 142.9
      }
    },
    {
      "site_id": "gcrjmj8upgg9",
      "brand": "Jet",
      "address": "MFG Old Basford, Mill Street, Old Basford",
      "postcode": "NG6 0JW",
      "location": {
        "latitude": 52.985021,
        "longitude": -1.185156
      },
      "prices": {
        "E10": 132.9,
        "E5": 149.9,
        "B7": 142.9
      }
    },
    {
      "site_id": "gcq72thjnpg1",
      "brand": "Jet",
      "address": "MFG Telford, Bridgnorth Road, Sutton Hill / Telford",
      "postcode": "TF7 4JG",
      "location": {
        "latitude": 52.630905,
        "longitude": -2.43321
      },
      "prices": {
        "E10": 137.9,
        "E5": 149.9,
        "B7": 147.9,
        "SDV": 159.9
      }
    },
    {
      "site_id": "gcpmpmrwwzsg",
      "brand": "Esso",
      "address": "MFG Maidenhead, 111/113 Cookham Road, Maidenhead",
      "postcode": "SL6 7EU",
      "location": {
        "latitude": 51.533902,
        "longitude": -0.725488
      },
      "prices": {
        "E10": 138.9,
        "E5": 155.9,
        "B7": 148.9
      }
    },
    {
      "site_id": "gcqdey0uytst",
      "brand": "Texaco",
      "address": "MFG Handsworth, 9 Holyhead Road, Handsworth / Birmingham",
      "postcode": "B21 0LA",
      "location": {
        "latitude": 52.504508,
        "longitude": -1.943265
      },
      "prices": {
        "E10": 133.9,
        "E5": 149.9,
        "B7": 144.9
      }
    },
    {
      "site_id": "gcqvns7sjdh4",
      "brand": "Jet",
      "address": "MFG Derby, Stores Road, Derby",
      "postcode": "DE21 4BD",
      "location": {
        "latitude": 52.9342,
        "longitude": -1.46712
      },
      "prices": {
        "E10": 135.9,
        "E5": 149.9,
        "B7": 145.9
      }
    },
    {
      "site_id": "gcpufn8h1e9b",
      "brand": "BP",
      "address": "MFG Chiswick, 70 South Parade, Chiswick",
      "postcode": "W4 5LG",
      "location": {
        "latitude": 51.496372,
        "longitude": -0.263605
      },
      "prices": {
        "E10": 138.9,
        "E5": 155.9,
        "B7": 146.9
      }
    },
    {
      "site_id": "gcpguw74npef",
      "brand": "Esso",
      "address": "MFG Coulsdon, 189/191 Chipstead Valley Road, Coulsden",
      "postcode": "CR5 3BR",
      "location": {
        "latitude": 51.318896,
        "longitude": -0.149426
      },
      "prices": {
        "E10": 136.9,
        "E5": 155.9,
        "B7": 146.9
      }
    },
    {
      "site_id": "gcpt40m96115",
      "brand": "Esso",
      "address": "MFG Slough, High Street, Chalvey / Slough",
      "postcode": "SL1 2RU",
      "location": {
        "latitude": 51.5055,
        "longitude": -0.607594
      },
      "prices": {
        "E10": 139.9,
        "E5": 155.9,
        "B7": 145.9,
        "SDV": 165.9
      }
    },
    {
      "site_id": "gcpy5cvzjjsz",
      "brand": "Murco",
      "address": "MFG Potters Bar, 46 Barnet Road, Potters Bar",
      "postcode": "EN6 2QU",
      "location": {
        "latitude": 51.690533,
        "longitude": -0.17865
      },
      "prices": {
        "E10": 137.9,
        "E5": 149.9,
        "B7": 145.9,
        "SDV": 159.9
      }
    },
    {
      "site_id": "u11h06xhkfm4",
      "brand": "Jet",
      "address": "MFG Ramsgate, 155 Hereson Road, Ramsgate",
      "postcode": "CT11 7EL",
      "location": {
        "latitude": 51.3426,
        "longitude": 1.42706
      },
      "prices": {
        "E10": 132.9,
        "E5": 149.9,
        "B7": 142.9,
        "SDV": 159.9
      }
    },
    {
      "site_id": "gcpsyyb5886n",
      "brand": "BP",
      "address": "MFG Hayes, Hayes Road, Southall",
      "postcode": "UB2 5LZ",
      "location": {
        "latitude": 51.497643,
        "longitude": -0.40647
      },
      "prices": {
        "E10": 135.9,
        "E5": 155.9,
        "B7": 142.9,
        "SDV": 165.9
      }
    },
    {
      "site_id": "gcpgfd6fdejd",
      "brand": "Esso",
      "address": "MFG Tadworth, Shelvers Hill, Ashurst Road / Tadworth",
      "postcode": "KT20 5PU",
      "location": {
        "latitude": 51.296985,
        "longitude": -0.237808
      },
      "prices": {
        "E10": 135.9,
        "E5": 155.9,
        "B7": 146.9,
        "SDV": 165.9
      }
    },
    {
      "site_id": "u10j8hvhjt48",
      "brand": "Esso",
      "address": "MFG Chingford, Hatch Lane, Chingford",
      "postcode": "E4 6LP",
      "location": {
        "latitude": 51.618603,
        "longitude": 0.007106
      },
      "prices": {
        "E10": 136.9,
        "E5": 155.9,
        "B7": 145.9,
        "SDV": 165.9
      }
    },
    {
      "site_id": "gcpkdnkwyt8v",
      "brand": "BP",
      "address": "MFG Reading, 69 London Road, Reading",
      "postcode": "RG1 5BW",
      "location": {
        "latitude": 51.451537,
        "longitude": -0.960337
      },
      "prices": {
        "E10": 136.9,
        "E5": 155.9,
        "B7": 145.9,
        "SDV": 165.9
      }
    },
    {
      "site_id": "gcputh1wxxm2",
      "brand": "Esso",
      "address": "MFG Streatham, 63/69 Sternhold Avenue, Streatham",
      "postcode": "SW2 4PB",
      "location": {
        "latitude": 51.439143,
        "longitude": -0.129447
      },
      "prices": {
        "E10": 135.9,
        "E5": 155.9,
        "B7": 144.9,
        "SDV": 165.9
      }
    },
    {
      "site_id": "u123pz7veu1u",
      "brand": "Jet",
      "address": "MFG Bury St. Edmunds, Newmarket Road, Bury St.Edmunds",
      "postcode": "IP33 3HA",
      "location": {
        "latitude": 52.247823,
        "longitude": 0.697452
      },
      "prices": {
        "E10": 132.9,
        "E5": 149.9,
        "B7": 142.9,
        "SDV": 159.9
      }
    },
    {
      "site_id": "gcpswn3q30c1",
      "brand": "ESSO",
      "address": "MFG Bedfont, 641/643 Staines Road, Bedfont",
      "postcode": "TW14 8PA",
      "location": {
        "latitude": 51.451425,
        "longitude": -0.437692
      },
      "prices": {
        "E10": 137.9,
        "E5": 155.9,
        "B7": 143.9,
        "SDV": 165.9
      }
    },
    {
      "site_id": "gcp7qhvmcjbe",
      "brand": "BP",
      "address": "MFG Farnham, Hale Road, Farnham",
      "postcode": "GU9 9RD",
      "location": {
        "latitude": 51.2234,
        "longitude": -0.783762
      },
      "prices": {
        "E10": 134.9,
        "E5": 155.9,
        "B7": 144.9,
        "SDV": 165.9
      }
    },
    {
      "site_id": "gcn8wdrjtcpc",
      "brand": "Esso",
      "address": "MFG Southbourne, 60 Southbourne Grove, Southbourne / Bounemouth",
      "postcode": "BH6 3RB",
      "location": {
        "latitude": 50.7262,
        "longitude": -1.81386
      },
      "prices": {
        "E10": 135.9,
        "E5": 155.9,
        "B7": 146.9,
        "SDV": 165.9
      }
    },
    {
      "site_id": "gcq3rzsz58x6",
      "brand": "Esso",
      "address": "MFG Droitwich, Worcester Road, Wychbold / Droitwich",
      "postcode": "WR9 7PH",
      "location": {
        "latitude": 52.29338,
        "longitude": -2.113678
      },
      "prices": {
        "E10": 135.9,
        "E5": 155.9,
        "B7": 145.9,
        "SDV": 165.9
      }
    },
    {
      "site_id": "gcpczx1vkz6e",
      "brand": "Esso",
      "address": "MFG Chailey, North Chailey Crossroads, Chailey / Lewes",
      "postcode": "BN8 4DH",
      "location": {
        "latitude": 50.97201,
        "longitude": -0.019362
      },
      "prices": {
        "E10": 133.9,
        "E5": 155.9,
        "B7": 143.9,
        "SDV": 165.9
      }
    },
    {
      "site_id": "gcx0rsckkc13",
      "brand": "Jet",
      "address": "MFG Cantley, Cantley Lane, Doncaster",
      "postcode": "DN4 6NN",
      "location": {
        "latitude": 53.508273,
        "longitude": -1.074738
      },
      "prices": {
        "E10": 133.9,
        "E5": 149.9,
        "B7": 143.9,
        "SDV": 159.9
      }
    },
    {
      "site_id": "gcn5y6f8pnq5",
      "brand": "Texaco",
      "address": "MFG Farrington Gurney, Bristol Road, Farrington Gurney / Bristol",
      "postcode": "BS39 6TG",
      "location": {
        "latitude": 51.29932,
        "longitude": -2.5341
      },
      "prices": {
        "E10": 138.9,
        "E5": 149.9,
        "B7": 144.9,
        "SDV": 159.9
      }
    },
    {
      "site_id": "gcnjmghyvrkr",
      "brand": "BP",
      "address": "MFG Almondsbury, Gloucester Road, Woodhouse Down / Bristol",
      "postcode": "BS32 4HY",
      "location": {
        "latitude": 51.56553,
        "longitude": -2.55306
      },
      "prices": {
        "E10": 132.9,
        "E5": 155.9,
        "B7": 143.9,
        "SDV": 165.9
      }
    },
    {
      "site_id": "gcjf4prr79mk",
      "brand": "BP",
      "address": "MFG Taunton Deane, Black Brook Park Avenue, Deane Gate / Taunton",
      "postcode": "TA1 2UH",
      "location": {
        "latitude": 51.01764,
        "longitude": -3.066058
      },
      "prices": {
        "E10": 132.9,
        "E5": 155.9,
        "B7": 141.9,
        "SDV": 165.9
      }
    },
    {
      "site_id": "gcnkhgyfu0sm",
      "brand": "Texaco",
      "address": "MFG Bradford-on-Avon, 47 Woolley Street, Bradford-on- Avon",
      "postcode": "BA15 1AF",
      "location": {
        "latitude": 51.3492,
        "longitude": -2.24275
      },
      "prices": {
        "E10": 134.9,
        "E5": 149.9,
        "B7": 145.9,
        "SDV": 159.9
      }
    },
    {
      "site_id": "gcnkr8vuhhr4",
      "brand": "Texaco",
      "address": "MFG Melksham, Sandridge Road, Melksham",
      "postcode": "SN12 7QW",
      "location": {
        "latitude": 51.3769,
        "longitude": -2.12327
      },
      "prices": {
        "E10": 131.9,
        "E5": 149.9,
        "B7": 139.9,
        "SDV": 159.9
      }
    },
    {
      "site_id": "gcnhvuwtfk1p",
      "brand": "Esso",
      "address": "MFG Stapleton, Park Road, Stapleton / Bristol",
      "postcode": "BS16 1DT",
      "location": {
        "latitude": 51.48569,
        "longitude": -2.55079
      },
      "prices": {
        "E10": 133.9,
        "E5": 155.9,
        "B7": 141.9,
        "SDV": 165.9
      }
    },
    {
      "site_id": "gcnx56djr9bu",
      "brand": "BP",
      "address": "MFG Andoversford, Shipton Oliffe, A40 Andoversford / Cheltenham",
      "postcode": "GL54 4HS",
      "location": {
        "latitude": 51.870113,
        "longitude": -1.963483
      },
      "prices": {
        "E10": 135.9,
        "E5": 155.9,
        "B7": 145.9,
        "SDV": 165.9
      }
    },
    {
      "site_id": "gcjnenx8p30j",
      "brand": "Texaco",
      "address": "MFG Cross Hands, Crosshands Road, Gorslas / Cross Hands",
      "postcode": "SA14 6RR",
      "location": {
        "latitude": 51.80329,
        "longitude": -4.076303
      },
      "prices": {
        "E10": 132.9,
        "E5": 149.9,
        "B7": 142.9,
        "SDV": 159.9
      }
    },
    {
      "site_id": "gcj4hsuwj6b9",
      "brand": "Texaco",
      "address": "MFG Umberleigh, Exeter Road, Umberleigh / Nr Barnstaple",
      "postcode": "EX37 9DX",
      "location": {
        "latitude": 51.0037,
        "longitude": -4.01459
      },
      "prices": {
        "E10": 131.9,
        "E5": 149.9,
        "B7": 141.9,
        "SDV": 159.9
      }
    },
    {
      "site_id": "gcr25f18juf1",
      "brand": "Esso",
      "address": "MFG Deanshanger, Buckingham Road, Deanshanger / Milton Keynes",
      "postcode": "MK19 6JU",
      "location": {
        "latitude": 52.042262,
        "longitude": -0.887583
      },
      "prices": {
        "E10": 137.9,
        "E5": 155.9,
        "B7": 146.9,
        "SDV": 165.9
      }
    },
    {
      "site_id": "gcnhw524wdqf",
      "brand": "Texaco",
      "address": "MFG Brislington, The Square, A4 Bath Road / Brislington",
      "postcode": "BS4 5AD",
      "location": {
        "latitude": 51.43431,
        "longitude": -2.54854
      },
      "prices": {
        "E10": 132.9,
        "E5": 149.9,
        "B7": 141.9,
        "SDV": 159.9
      }
    },
    {
      "site_id": "gcnhu9j7r77g",
      "brand": "ESSO",
      "address": "MFG Redland, Hampton Road, Redland / Bristol",
      "postcode": "BS6 6JA",
      "location": {
        "latitude": 51.46603,
        "longitude": -2.60722
      },
      "prices": {
        "E10": 133.9,
        "E5": 155.9,
        "B7": 142.9,
        "SDV": 165.9
      }
    },
    {
      "site_id": "gcjm90kturzr",
      "brand": "Texaco",
      "address": "MFG Port Talbot, Princess Margaret Way, Aberavon / Port Talbot",
      "postcode": "SA12 7PE",
      "location": {
        "latitude": 51.5942,
        "longitude": -3.81687
      },
      "prices": {
        "E10": 133.9,
        "E5": 149.9,
        "B7": 143.9,
        "SDV": 159.9
      }
    },
    {
      "site_id": "gcr1fymknd94",
      "brand": "Esso",
      "address": "MFG Lawford Road, 159-183 Lawford Road, Rugby",
      "postcode": "CV21 2HX",
      "location": {
        "latitude": 52.3739,
        "longitude": -1.27791
      },
      "prices": {
        "E10": 134.9,
        "E5": 155.9,
        "B7": 144.9,
        "SDV": 165.9
      }
    },
    {
      "site_id": "gcjjvc28e7cd",
      "brand": "Texaco",
      "address": "MFG Conway (Swansea), Pentregethin Road, Penlan",
      "postcode": "SA5 8AQ",
      "location": {
        "latitude": 51.642715,
        "longitude": -3.965236
      },
      "prices": {
        "E10": 133.9,
        "E5": 149.9,
        "B7": 142.9,
        "SDV": 159.9
      }
    },
    {
      "site_id": "gcjsz3bbnkf7",
      "brand": "Texaco",
      "address": "MFG Ninian, Sloper Road, Cardiff",
      "postcode": "CF11 8AF",
      "location": {
        "latitude": 51.4696,
        "longitude": -3.19572
      },
      "prices": {
        "E10": 134.9,
        "E5": 149.9,
        "B7": 142.9
      }
    },
    {
      "site_id": "gcjt07e1d9ch",
      "brand": "Texaco",
      "address": "MFG Pencoed, 11 Coychurch Road, Pencoed",
      "postcode": "CF35 5NH",
      "location": {
        "latitude": 51.5234,
        "longitude": -3.50041
      },
      "prices": {
        "E10": 131.9,
        "E5": 149.9,
        "B7": 141.9,
        "SDV": 159.9
      }
    },
    {
      "site_id": "gcqdcmqvvkwp",
      "brand": "Esso",
      "address": "MFG Gospel Oak, Gospel Oak Road, Tipton",
      "postcode": "DY4 0DS",
      "location": {
        "latitude": 52.5445,
        "longitude": -2.04494
      },
      "prices": {
        "E10": 134.9,
        "E5": 155.9,
        "B7": 144.9,
        "SDV": 165.9
      }
    },
    {
      "site_id": "gcjtqnrbbujv",
      "brand": "Texaco",
      "address": "MFG Caerphilly, St Cenydd Road, Caerphilly",
      "postcode": "CF83 2RP",
      "location": {
        "latitude": 51.582335,
        "longitude": -3.24127
      },
      "prices": {
        "E10": 132.9,
        "E5": 149.9,
        "B7": 141.9,
        "SDV": 159.9
      }
    },
    {
      "site_id": "gcq6rffhnyb0",
      "brand": "Jet",
      "address": "MFG Pedmore, Gauden Road, Pedmore Fields / Stourbridge",
      "postcode": "DY9 9HJ",
      "location": {
        "latitude": 52.442587,
        "longitude": -2.117325
      },
      "prices": {
        "E10": 136.9,
        "E5": 149.9,
        "B7": 146.9,
        "SDV": 159.9
      }
    },
    {
      "site_id": "gcqd8re1d9nr",
      "brand": "Texaco",
      "address": "MFG Eve Hill, Wolverhampton Street, Dudley",
      "postcode": "DY1 3AW",
      "location": {
        "latitude": 52.512166,
        "longitude": -2.094153
      },
      "prices": {
        "E10": 134.9,
        "E5": 149.9,
        "B7": 143.9,
        "SDV": 159.9
      }
    },
    {
      "site_id": "gcqpdk60fdyz",
      "brand": "Texaco",
      "address": "MFG Widnes, Warrington Road, Widnes",
      "postcode": "WA8 0AU",
      "location": {
        "latitude": 53.3731,
        "longitude": -2.71076
      },
      "prices": {
        "E10": 134.9,
        "E5": 149.9,
        "B7": 144.9,
        "SDV": 159.9
      }
    },
    {
      "site_id": "gcqpbt3j20gj",
      "brand": "Texaco",
      "address": "MFG Whiston, 242 Warrington Road, Whiston / Liverpool",
      "postcode": "L35 2UA",
      "location": {
        "latitude": 53.4233,
        "longitude": -2.78915
      },
      "prices": {
        "E10": 133.9,
        "E5": 149.9,
        "B7": 142.9,
        "SDV": 159.9
      }
    },
    {
      "site_id": "gcmyvz17w1hr",
      "brand": "BP",
      "address": "MFG Strawberry, Whitby Roundabout, Ellesmere Port",
      "postcode": "CH66 2PY",
      "location": {
        "latitude": 53.256833,
        "longitude": -2.909397
      },
      "prices": {
        "E10": 136.9,
        "E5": 155.9,
        "B7": 145.9
      }
    },
    {
      "site_id": "gcmzfjr6zvjc",
      "brand": "BP",
      "address": "MFG Wallasey Village, 15-35 Leasowe Road, Wallasey Village",
      "postcode": "CH44 2BY",
      "location": {
        "latitude": 53.422893,
        "longitude": -3.065875
      },
      "prices": {
        "E10": 133.9,
        "E5": 155.9,
        "B7": 143.9,
        "SDV": 165.9
      }
    },
    {
      "site_id": "gcqpeyy2mmu2",
      "brand": "Texaco",
      "address": "MFG Penketh, Liverpool Road, Penketh / Warrington",
      "postcode": "WA5 1QY",
      "location": {
        "latitude": 53.386762,
        "longitude": -2.638891
      },
      "prices": {
        "E10": 134.9,
        "E5": 149.9,
        "B7": 144.9,
        "SDV": 159.9
      }
    },
    {
      "site_id": "gcmzg5f94rvh",
      "brand": "Shell",
      "address": "MFG Liscard, Lloyds Corner / Liscard Road, Wallasey",
      "postcode": "CH44 9AD",
      "location": {
        "latitude": 53.414368,
        "longitude": -3.02869
      },
      "prices": {
        "E10": 133.9,
        "E5": 159.9,
        "B7": 143.9,
        "SDV": 169.9
      }
    },
    {
      "site_id": "gcw05erhgjzj",
      "brand": "Texaco",
      "address": "MFG Newton Le Willows, Crow Lane West, Newton Le Willows",
      "postcode": "WA12 9DG",
      "location": {
        "latitude": 53.4562,
        "longitude": -2.64894
      },
      "prices": {
        "E10": 133.9,
        "E5": 149.9,
        "B7": 139.9,
        "SDV": 159.9
      }
    },
    {
      "site_id": "gcrjk9mmreug",
      "brand": "Texaco",
      "address": "MFG Beechdale, 337 Beechdale Road, Nottingham",
      "postcode": "NG8 3FF",
      "location": {
        "latitude": 52.96189,
        "longitude": -1.200958
      },
      "prices": {
        "E10": 133.9,
        "E5": 149.9,
        "B7": 142.9,
        "SDV": 159.9
      }
    },
    {
      "site_id": "gcqdss2bupwm",
      "brand": "Texaco",
      "address": "MFG New John Street, New John Street West, Hockley / Birmingham",
      "postcode": "B19 3TZ",
      "location": {
        "latitude": 52.494219,
        "longitude": -1.910411
      },
      "prices": {
        "E10": 133.9,
        "E5": 149.9,
        "B7": 144.9,
        "SDV": 159.9
      }
    },
    {
      "site_id": "gcwcvpdu5jxj",
      "brand": "Jet",
      "address": "MFG Apollo, 169-171 Hunslet Road, Leeds",
      "postcode": "LS10 1PF",
      "location": {
        "latitude": 53.787033,
        "longitude": -1.534171
      },
      "prices": {
        "E10": 131.9,
        "E5": 149.9,
        "B7": 141.9,
        "SDV": 159.9
      }
    },
    {
      "site_id": "u10zb4cvt8w1",
      "brand": "Jet",
      "address": "MFG Capelgate, A12 Northbound, Capel St Mary / Ipswich",
      "postcode": "IP9 2JJ",
      "location": {
        "latitude": 52.003358,
        "longitude": 1.057335
      },
      "prices": {
        "E10": 127.9,
        "E5": 149.9,
        "B7": 137.9,
        "SDV": 159.9
      }
    },
    {
      "site_id": "u10j7k99q4ez",
      "brand": "Jet",
      "address": "MFG Chadwell Heath, 287 High Road, Chadwell Heath",
      "postcode": "RM6 6AU",
      "location": {
        "latitude": 51.5728,
        "longitude": 0.145145
      },
      "prices": {
        "E10": 135.9,
        "E5": 149.9,
        "B7": 144.9
      }
    },
    {
      "site_id": "gcqef7k16bt1",
      "brand": "Texaco",
      "address": "MFG Chase, Cannock Road, Hednesford / Cannock Chase",
      "postcode": "WS12 4AA",
      "location": {
        "latitude": 52.7085,
        "longitude": -2.00488
      },
      "prices": {
        "E10": 131.9,
        "E5": 149.9,
        "B7": 141.9,
        "SDV": 159.9
      }
    },
    {
      "site_id": "gcq7qc1brszf",
      "brand": "Esso",
      "address": "MFG Claregate, 60 Codsall Road, Tettenhall / Wolverhampton",
      "postcode": "WV6 9QP",
      "location": {
        "latitude": 52.608101,
        "longitude": -2.161571
      },
      "prices": {
        "E10": 133.9,
        "E5": 155.9,
        "B7": 143.9,
        "SDV": 165.9
      }
    },
    {
      "site_id": "u10sphpb970f",
      "brand": "Jet",
      "address": "MFG Crusader, 10 Borstal Hill, Whitstable",
      "postcode": "CT5 4LX",
      "location": {
        "latitude": 51.3502,
        "longitude": 1.02144
      },
      "prices": {
        "E10": 135.9,
        "E5": 149.9,
        "B7": 142.9
      }
    },
    {
      "site_id": "gcpemu88c8xp",
      "brand": "Esso",
      "address": "MFG Downside, Station Road, Gomshall / Guildford",
      "postcode": "GU5 9LQ",
      "location": {
        "latitude": 51.221141,
        "longitude": -0.449679
      },
      "prices": {
        "E10": 134.9,
        "E5": 155.9,
        "B7": 144.9,
        "SDV": 165.9
      }
    },
    {
      "site_id": "gcpxjqgcd837",
      "brand": "Esso",
      "address": "MFG Dunstable Road, 645 Dunstable Road, Luton",
      "postcode": "LU4 8QR",
      "location": {
        "latitude": 51.892807,
        "longitude": -0.467153
      },
      "prices": {
        "E10": 134.9,
        "E5": 155.9,
        "B7": 146.9,
        "SDV": 165.9
      }
    },
    {
      "site_id": "gcqen8smdq56",
      "brand": "Texaco",
      "address": "MFG Fircroft, Coleshill Road, Sutton Coldfield",
      "postcode": "B75 7AA",
      "location": {
        "latitude": 52.562317,
        "longitude": -1.817793
      },
      "prices": {
        "E10": 132.9,
        "B7": 142.9,
        "SDV": 159.9
      }
    },
    {
      "site_id": "gcr5qr6sugex",
      "brand": "Jet",
      "address": "MFG Flyover, 216 Belgrave Gate, Leicester",
      "postcode": "LE1 3XP",
      "location": {
        "latitude": 52.6432,
        "longitude": -1.12795
      },
      "prices": {
        "E10": 135.9,
        "E5": 149.9,
        "B7": 146.9
      }
    },
    {
      "site_id": "gcw9yv5h4f71",
      "brand": "Esso",
      "address": "MFG Hare & Hounds, 1081 Great Horton Road, Bradford",
      "postcode": "BD7 4LT",
      "location": {
        "latitude": 53.773282,
        "longitude": -1.808502
      },
      "prices": {
        "E10": 133.9,
        "E5": 155.9,
        "B7": 143.9,
        "SDV": 165.9
      }
    },
    {
      "site_id": "gcpvrpfgvyxk",
      "brand": "Esso",
      "address": "MFG Highams Lodge, 110 Blackhorse Lane, Walthamstow",
      "postcode": "E17 6AA",
      "location": {
        "latitude": 51.591103,
        "longitude": -0.039912
      },
      "prices": {
        "E10": 133.9,
        "E5": 155.9,
        "B7": 143.9,
        "SDV": 165.9
      }
    },
    {
      "site_id": "gcrqn1vffhre",
      "brand": "Esso",
      "address": "MFG Interchange, Lincoln Road, Winthorpe / Newark",
      "postcode": "NG24 2NY",
      "location": {
        "latitude": 53.096046,
        "longitude": -0.783023
      },
      "prices": {
        "E10": 139.9,
        "E5": 155.9,
        "B7": 151.9,
        "SDV": 165.9
      }
    },
    {
      "site_id": "gcrpcq0w7p37",
      "brand": "Jet",
      "address": "MFG Jolly Miller, Welgate, Clifton / Rotherham",
      "postcode": "S60 2PE",
      "location": {
        "latitude": 53.427626,
        "longitude": -1.350501
      },
      "prices": {
        "E10": 132.9,
        "E5": 149.9,
        "B7": 142.9,
        "SDV": 159.9
      }
    },
    {
      "site_id": "gcrg4mh8bf4t",
      "brand": "Texaco",
      "address": "MFG Kingfisher, 214-228 Lincoln Road, Peterborough",
      "postcode": "PE1 2NE",
      "location": {
        "latitude": 52.5862,
        "longitude": -0.24647
      },
      "prices": {
        "E10": 132.9,
        "E5": 149.9,
        "B7": 142.9,
        "SDV": 159.9
      }
    },
    {
      "site_id": "gcrm4ybdwzs5",
      "brand": "Esso",
      "address": "MFG Kings Garage, Grantham Road, Bingham",
      "postcode": "NG13 8DF",
      "location": {
        "latitude": 52.947705,
        "longitude": -0.932856
      },
      "prices": {
        "E10": 133.9,
        "E5": 155.9,
        "B7": 144.9,
        "SDV": 165.9
      }
    },
    {
      "site_id": "gcrpbysbcvvn",
      "brand": "Jet",
      "address": "MFG Masbrough, Masbrough Street, Rotherham",
      "postcode": "S60 1HT",
      "location": {
        "latitude": 53.429421,
        "longitude": -1.366686
      },
      "prices": {
        "E10": 132.9,
        "E5": 149.9,
        "B7": 142.9
      }
    },
    {
      "site_id": "gcr2hskvyecj",
      "brand": "Esso",
      "address": "MFG Millfield, 9 London Road, Stony Stratford / Milton Keynes",
      "postcode": "MK11 1JA",
      "location": {
        "latitude": 52.055604,
        "longitude": -0.85013
      },
      "prices": {
        "E10": 138.9,
        "E5": 155.9,
        "B7": 145.9,
        "SDV": 165.9
      }
    },
    {
      "site_id": "gcwbnk7m6y8v",
      "brand": "Jet",
      "address": "MFG Morestyle, 235 Burncross Road, Chapeltown / Sheffield",
      "postcode": "S35 1RZ",
      "location": {
        "latitude": 53.461783,
        "longitude": -1.478572
      },
      "prices": {
        "E10": 132.9,
        "E5": 149.9,
        "B7": 142.9,
        "SDV": 159.9
      }
    },
    {
      "site_id": "gcx9th1q4sc0",
      "brand": "Esso",
      "address": "MFG North Ferriby, A63 Eastbound, North Ferriby / Hull",
      "postcode": "HU14 3HH",
      "location": {
        "latitude": 53.7242,
        "longitude": -0.481573
      },
      "prices": {
        "E10": 136.9,
        "E5": 155.9,
        "B7": 147.9,
        "SDV": 165.9
      }
    },
    {
      "site_id": "u135r61yk22d",
      "brand": "Jet",
      "address": "MFG Northgate, 186 Northgate Street, Great Yarmouth",
      "postcode": "NR30 1DA",
      "location": {
        "latitude": 52.6146,
        "longitude": 1.72744
      },
      "prices": {
        "E10": 131.9,
        "E5": 149.9,
        "B7": 141.9
      }
    },
    {
      "site_id": "gcqdqfbbz0hr",
      "brand": "Texaco",
      "address": "MFG Olton, 10 - 24 Warwick Road, Olton, Solihull",
      "postcode": "B92 7HS",
      "location": {
        "latitude": 52.441994,
        "longitude": -1.811408
      },
      "prices": {
        "E10": 132.9,
        "E5": 149.9,
        "B7": 142.9,
        "SDV": 159.9
      }
    },
    {
      "site_id": "gcx9zc3yt2pe",
      "brand": "Jet",
      "address": "MFG Princes Avenue, Princes Avenue, Kingston-Upon-Hull / Hull",
      "postcode": "HU5 3QA",
      "location": {
        "latitude": 53.7531,
        "longitude": -0.35991
      },
      "prices": {
        "E10": 134.9,
        "E5": 149.9,
        "B7": 143.9,
        "SDV": 159.9
      }
    },
    {
      "site_id": "gcpu3vm7m6x9",
      "brand": "BP",
      "address": "MFG Rose Cottage, 159 Kingston Road, New Malden",
      "postcode": "KT3 3NS",
      "location": {
        "latitude": 51.401481,
        "longitude": -0.267213
      },
      "prices": {
        "E10": 137.9,
        "E5": 155.9,
        "B7": 147.9,
        "SDV": 165.9
      }
    },
    {
      "site_id": "gcxbtxq5jdrj",
      "brand": "Jet",
      "address": "MFG Roundhead, 148 Cromwell Road, Grimsby",
      "postcode": "DN31 2BA",
      "location": {
        "latitude": 53.565744,
        "longitude": -0.101378
      },
      "prices": {
        "E10": 133.9,
        "E5": 149.9,
        "B7": 137.9,
        "SDV": 159.9
      }
    },
    {
      "site_id": "gcqe260c85nq",
      "brand": "Texaco",
      "address": "MFG Royal Oak, Blackhalve Lane, Wednesfield",
      "postcode": "WV11 1BQ",
      "location": {
        "latitude": 52.6138,
        "longitude": -2.09735
      },
      "prices": {
        "E10": 135.9,
        "E5": 149.9,
        "B7": 143.9,
        "SDV": 159.9
      }
    },
    {
      "site_id": "gcpexjq0v83d",
      "brand": "BP",
      "address": "MFG Shirley, Guildford Road, Great Bookham",
      "postcode": "KT23 4HB",
      "location": {
        "latitude": 51.269204,
        "longitude": -0.38703
      },
      "prices": {
        "E10": 135.9,
        "E5": 155.9,
        "B7": 144.9,
        "SDV": 165.9
      }
    },
    {
      "site_id": "gcqmwxkd09sr",
      "brand": "Texaco",
      "address": "MFG Sneyd Green, Hanley Road, Sneyd Green / Stoke On Trent",
      "postcode": "ST1 6BE",
      "location": {
        "latitude": 53.038225,
        "longitude": -2.169086
      },
      "prices": {
        "E10": 132.9,
        "E5": 149.9,
        "B7": 142.9,
        "SDV": 159.9
      }
    },
    {
      "site_id": "u12gmjrjgy3r",
      "brand": "Esso",
      "address": "MFG St. Benedicts, 9 Dereham Road, Norwich",
      "postcode": "NR2 4HX",
      "location": {
        "latitude": 52.6324,
        "longitude": 1.28419
      },
      "prices": {
        "E10": 134.9,
        "E5": 155.9,
        "B7": 143.9,
        "SDV": 165.9
      }
    },
    {
      "site_id": "u105u2q33wp3",
      "brand": "BP",
      "address": "MFG St. John's Hill, 67-73 St Johns Hill, Sevenoaks",
      "postcode": "TN13 3NY",
      "location": {
        "latitude": 51.2858,
        "longitude": 0.195425
      },
      "prices": {
        "E10": 138.9,
        "E5": 155.9,
        "B7": 148.9,
        "SDV": 165.9
      }
    },
    {
      "site_id": "gcpvq76d397s",
      "brand": "Esso",
      "address": "MFG Stamford Hill, 43-45 Stamford Hill, Stoke Newington",
      "postcode": "N16 5SR",
      "location": {
        "latitude": 51.566098,
        "longitude": -0.073402
      },
      "prices": {
        "E10": 139.9,
        "E5": 155.9,
        "B7": 147.9,
        "SDV": 165.9
      }
    },
    {
      "site_id": "gcx8chxm23fx",
      "brand": "Jet",
      "address": "MFG Steelmakers, Normanby Road, Scunthorpe",
      "postcode": "DN15 6AJ",
      "location": {
        "latitude": 53.594967,
        "longitude": -0.649209
      },
      "prices": {
        "E10": 132.9,
        "E5": 149.9,
        "B7": 139.9,
        "SDV": 159.9
      }
    },
    {
      "site_id": "gcxcbs37dqsz",
      "brand": "Esso",
      "address": "MFG Stoneferry North, Stoneferry Road, Hull",
      "postcode": "HU7 0EG",
      "location": {
        "latitude": 53.7691,
        "longitude": -0.32777
      },
      "prices": {
        "E10": 134.9,
        "E5": 155.9,
        "B7": 144.9,
        "SDV": 165.9
      }
    },
    {
      "site_id": "gcx0635qhdtn",
      "brand": "Jet",
      "address": "MFG Swinton, Bridge Street, Swinton / Rotherham",
      "postcode": "S64 8AP",
      "location": {
        "latitude": 53.487983,
        "longitude": -1.30271
      },
      "prices": {
        "E10": 132.9,
        "E5": 149.9,
        "B7": 142.9,
        "SDV": 159.9
      }
    },
    {
      "site_id": "gcqzzfzq6xtt",
      "brand": "BP",
      "address": "MFG Tinsley, Sheffield Road, Tinsley / Sheffield",
      "postcode": "S9 2YL",
      "location": {
        "latitude": 53.409775,
        "longitude": -1.407165
      },
      "prices": {
        "E10": 132.9,
        "E5": 155.9,
        "B7": 142.9,
        "SDV": 165.9
      }
    },
    {
      "site_id": "gcqvn93pm2yu",
      "brand": "Texaco",
      "address": "MFG Traffic, Traffic Street, Derby",
      "postcode": "DE1 2NL",
      "location": {
        "latitude": 52.918272,
        "longitude": -1.47056
      },
      "prices": {
        "E10": 136.9,
        "E5": 149.9,
        "B7": 146.9,
        "SDV": 159.9
      }
    },
    {
      "site_id": "gcwcnn9znmbu",
      "brand": "Jet",
      "address": "MFG Walnut, Barnsley Road, Wakefield",
      "postcode": "WF2 6BH",
      "location": {
        "latitude": 53.65022,
        "longitude": -1.491468
      },
      "prices": {
        "E10": 130.9,
        "E5": 149.9,
        "B7": 140.9,
        "SDV": 159.9
      }
    },
    {
      "site_id": "u135phz5e6rs",
      "brand": "Esso",
      "address": "MFG White Horse, Beccles Road, Gorleston On Sea / Great Yarmouth",
      "postcode": "NR31 8BL",
      "location": {
        "latitude": 52.5853,
        "longitude": 1.72363
      },
      "prices": {
        "E10": 131.9,
        "E5": 155.9,
        "B7": 141.9,
        "SDV": 165.9
      }
    },
    {
      "site_id": "gcpvg5p7keg1",
      "brand": "Esso",
      "address": "MFG Wood Street, 93-101 Wood Street, Barnet",
      "postcode": "EN5 4BX",
      "location": {
        "latitude": 51.6528,
        "longitude": -0.209573
      },
      "prices": {
        "E10": 134.9,
        "E5": 155.9,
        "B7": 143.9
      }
    },
    {
      "site_id": "gcr35eem9yzc",
      "brand": "Jet",
      "address": "MFG Farcotton, 19 London Road, Farcotton",
      "postcode": "NN4 8AG",
      "location": {
        "latitude": 52.227238,
        "longitude": -0.89633
      },
      "prices": {
        "E10": 133.9,
        "E5": 149.9,
        "B7": 144.9,
        "SDV": 159.9
      }
    },
    {
      "site_id": "gcpstchkh94c",
      "brand": "Esso",
      "address": "MFG Herds Garage, 404 Staines Road, West Ashford",
      "postcode": "TW15 1RZ",
      "location": {
        "latitude": 51.422201,
        "longitude": -0.444406
      },
      "prices": {
        "E10": 133.9,
        "E5": 155.9,
        "B7": 141.9,
        "SDV": 165.9
      }
    },
    {
      "site_id": "gcpkf61bqv83",
      "brand": "BP",
      "address": "MFG Leander, 182-184 Henley Road, Reading",
      "postcode": "RG4 5DL",
      "location": {
        "latitude": 51.47102,
        "longitude": -0.953117
      },
      "prices": {
        "E10": 136.9,
        "E5": 155.9,
        "B7": 144.9,
        "SDV": 165.9
      }
    },
    {
      "site_id": "gcpsj5643ehv",
      "brand": "Jet",
      "address": "MFG Oyster Lane, 111 Oyster Lane, Byfleet",
      "postcode": "KT14 7JH",
      "location": {
        "latitude": 51.346381,
        "longitude": -0.480581
      },
      "prices": {
        "E10": 138.9,
        "E5": 149.9,
        "B7": 143.9,
        "SDV": 159.9
      }
    },
    {
      "site_id": "gcptrz1tx1k4",
      "brand": "Esso",
      "address": "MFG Ten Pin, Station Road, North Harrow",
      "postcode": "HA2 6AE",
      "location": {
        "latitude": 51.587255,
        "longitude": -0.360183
      },
      "prices": {
        "E10": 136.9,
        "E5": 155.9,
        "B7": 144.9,
        "SDV": 165.9
      }
    },
    {
      "site_id": "gcpv6g75s9rq",
      "brand": "Esso",
      "address": "MFG Victoria, 387 Edgware Road, Cricklewood",
      "postcode": "NW2 6LH",
      "location": {
        "latitude": 51.566313,
        "longitude": -0.22639
      },
      "prices": {
        "E10": 136.9,
        "E5": 155.9,
        "B7": 146.9,
        "SDV": 169.9
      }
    },
    {
      "site_id": "gcxbxnucqdgz",
      "brand": "Jet",
      "address": "MFG Bucaneer, 443 Grimsby Road, Cleethorpes",
      "postcode": "DN35 8AJ",
      "location": {
        "latitude": 53.5627,
        "longitude": -0.037138
      },
      "prices": {
        "E10": 133.9,
        "E5": 149.9,
        "B7": 137.9,
        "SDV": 159.9
      }
    },
    {
      "site_id": "gcxby2ykuj77",
      "brand": "Jet",
      "address": "MFG Cleethorpes, 178-182 Cleethorpes Road, Grimsby",
      "postcode": "DN31 3HW",
      "location": {
        "latitude": 53.5743,
        "longitude": -0.068145
      },
      "prices": {
        "E10": 133.9,
        "E5": 149.9,
        "B7": 137.9,
        "SDV": 159.9
      }
    },
    {
      "site_id": "gcqztz22burg",
      "brand": "Jet",
      "address": "MFG Cutlers, Northfields Road, Crookes / Sheffield",
      "postcode": "S10 1QP",
      "location": {
        "latitude": 53.389587,
        "longitude": -1.504741
      },
      "prices": {
        "E10": 133.9,
        "E5": 149.9,
        "B7": 143.9,
        "SDV": 159.9
      }
    },
    {
      "site_id": "gcqf2pkt74qd",
      "brand": "Esso",
      "address": "MFG Marston Green, 53 Station Road, Marston Green, Solihull",
      "postcode": "B37 7AU",
      "location": {
        "latitude": 52.467497,
        "longitude": -1.751495
      },
      "prices": {
        "E10": 132.9,
        "E5": 155.9,
        "B7": 142.9,
        "SDV": 165.9
      }
    },
    {
      "site_id": "u10m6v6qn6tv",
      "brand": "Texaco",
      "address": "MFG Whitmore Way, Whitmore Way, Basildon",
      "postcode": "SS14 2NL",
      "location": {
        "latitude": 51.577735,
        "longitude": 0.475778
      },
      "prices": {
        "E10": 133.9,
        "E5": 149.9,
        "B7": 141.9,
        "SDV": 159.9
      }
    },
    {
      "site_id": "gcqf08g6ue72",
      "brand": "Esso",
      "address": "MFG Knowle, 102 Kenilworth Road, Knowle",
      "postcode": "B93 0JD",
      "location": {
        "latitude": 52.387422,
        "longitude": -1.731179
      },
      "prices": {
        "E10": 134.9,
        "E5": 155.9,
        "B7": 144.9,
        "SDV": 165.9
      }
    },
    {
      "site_id": "gcpuy2meqcky",
      "brand": "Esso",
      "address": "MFG Dulwich, 13 - 19 East Dulwich Road, Dulwich",
      "postcode": "SE22 9BD",
      "location": {
        "latitude": 51.4619,
        "longitude": -0.069055
      },
      "prices": {
        "E10": 133.9,
        "E5": 155.9,
        "B7": 143.9,
        "SDV": 165.9
      }
    },
    {
      "site_id": "u10dunve016w",
      "brand": "Esso",
      "address": "MFG East Stour, Hythe Road, Ashford",
      "postcode": "TN24 8AH",
      "location": {
        "latitude": 51.146,
        "longitude": 0.886463
      },
      "prices": {
        "E10": 137.9,
        "E5": 155.9,
        "B7": 148.9,
        "SDV": 165.9
      }
    },
    {
      "site_id": "gcpvrg057fj9",
      "brand": "Jet",
      "address": "MFG Leyco, 462 - 464 Leyton High Road, Leyton",
      "postcode": "E10 6QA",
      "location": {
        "latitude": 51.5649,
        "longitude": -0.010818
      },
      "prices": {
        "E10": 135.9,
        "E5": 149.9,
        "B7": 143.9,
        "SDV": 159.9
      }
    },
    {
      "site_id": "u12gmpyrdcwd",
      "brand": "Esso",
      "address": "MFG Broadside, 174 Aylsham Road, Norwich",
      "postcode": "NR3 2HJ",
      "location": {
        "latitude": 52.646407,
        "longitude": 1.283124
      },
      "prices": {
        "E10": 134.9,
        "E5": 155.9,
        "B7": 143.9,
        "SDV": 165.9
      }
    },
    {
      "site_id": "gcxbtbks0rgm",
      "brand": "Jet",
      "address": "MFG Mariners, 196 Waltham Road, Grimsby",
      "postcode": "DN33 2PZ",
      "location": {
        "latitude": 53.527493,
        "longitude": -0.092682
      },
      "prices": {
        "E10": 134.9,
        "E5": 149.9,
        "B7": 138.9,
        "SDV": 159.9
      }
    },
    {
      "site_id": "gcrnbr174vqx",
      "brand": "Jet",
      "address": "MFG Brimington, High Street, Chesterfield",
      "postcode": "S43 1DE",
      "location": {
        "latitude": 53.25677,
        "longitude": -1.39342
      },
      "prices": {
        "E10": 136.9,
        "E5": 149.9,
        "B7": 144.9,
        "SDV": 159.9
      }
    },
    {
      "site_id": "gcvw3r3u5h9j",
      "brand": "Esso",
      "address": "MFG Newton, 3 Main Street, Newton Village",
      "postcode": "EH52 6QE",
      "location": {
        "latitude": 55.98292,
        "longitude": -3.45816
      },
      "prices": {
        "E10": 139.9,
        "E5": 155.9,
        "B7": 144.9
      }
    },
    {
      "site_id": "gcvmv4ztc2ve",
      "brand": "BP",
      "address": "MFG Mosshall, 55 West Main Street, Blackburn",
      "postcode": "EH47 7LX",
      "location": {
        "latitude": 55.87059,
        "longitude": -3.6371
      },
      "prices": {
        "E10": 139.9,
        "E5": 155.9,
        "B7": 149.9,
        "SDV": 165.9
      }
    },
    {
      "site_id": "gcvqk50jqyuc",
      "brand": "BP",
      "address": "MFG Bowhouse, Echobank, Maddiston",
      "postcode": "FK2 0BX",
      "location": {
        "latitude": 55.9598,
        "longitude": -3.69111
      },
      "prices": {
        "E10": 136.9,
        "E5": 155.9,
        "B7": 146.9,
        "SDV": 165.9
      }
    },
    {
      "site_id": "gcvw2g6n2zpt",
      "brand": "Esso",
      "address": "MFG Glendevon, Linlith, Winchburgh",
      "postcode": "EH52 6PX",
      "location": {
        "latitude": 55.961347,
        "longitude": -3.479877
      },
      "prices": {
        "E10": 136.9,
        "E5": 155.9,
        "B7": 145.9
      }
    },
    {
      "site_id": "gcpsvpdgny2h",
      "brand": "Esso",
      "address": "MFG Mill Road, 1 Mill Road, West Drayton",
      "postcode": "UB7 7EQ",
      "location": {
        "latitude": 51.501709,
        "longitude": -0.479332
      },
      "prices": {
        "E10": 136.9,
        "E5": 155.9,
        "B7": 143.9,
        "SDV": 165.9
      }
    },
    {
      "site_id": "gcqdqy6ktpvt",
      "brand": "Texaco",
      "address": "MFG Swan, London Road, Hindhead",
      "postcode": "GU26 6AF",
      "location": {
        "latitude": 52.461905,
        "longitude": -1.809432
      },
      "prices": {
        "E10": 131.9,
        "E5": 149.9,
        "B7": 141.9,
        "SDV": 159.9
      }
    },
    {
      "site_id": "gcvnq1cjm8w9",
      "brand": "Esso",
      "address": "MFG Abronhill, Forest Road, Cumbernauld",
      "postcode": "G67 3PD",
      "location": {
        "latitude": 55.9529,
        "longitude": -3.95346
      },
      "prices": {
        "E10": 139.9,
        "E5": 155.9,
        "B7": 143.9,
        "SDV": 165.9
      }
    },
    {
      "site_id": "gcuvqtxbxqkk",
      "brand": "Esso",
      "address": "MFG Clarkston, 692 Clarkston Road, Glasgow",
      "postcode": "G44 3YR",
      "location": {
        "latitude": 55.796934,
        "longitude": -4.273708
      },
      "prices": {
        "E10": 134.9,
        "E5": 155.9,
        "B7": 144.9,
        "SDV": 165.9
      }
    },
    {
      "site_id": "gcvnhqd7mn7e",
      "brand": "BP",
      "address": "MFG Condorrat, 38 Main Road, Cumbernauld",
      "postcode": "G67 4DZ",
      "location": {
        "latitude": 55.934735,
        "longitude": -4.028673
      },
      "prices": {
        "E10": 139.9,
        "E5": 155.9,
        "B7": 145.9,
        "SDV": 165.9
      }
    },
    {
      "site_id": "gcvnm656c4fy",
      "brand": "BP",
      "address": "MFG Seafar, Seafar Road, Cumbernauld",
      "postcode": "G67 1AP",
      "location": {
        "latitude": 55.953857,
        "longitude": -3.983527
      },
      "prices": {
        "E10": 139.9,
        "E5": 155.9,
        "B7": 143.9,
        "SDV": 165.9
      }
    },
    {
      "site_id": "gcjtu3v8fdvp",
      "brand": "Texaco",
      "address": "MFG Abercynon, A470 (Northbound), Abercynon",
      "postcode": "CF45 4YX",
      "location": {
        "latitude": 51.6455,
        "longitude": -3.32119
      },
      "prices": {
        "E10": 134.9,
        "E5": 149.9,
        "B7": 141.9,
        "SDV": 159.9
      }
    },
    {
      "site_id": "gcw3f1g7csyg",
      "brand": "Texaco",
      "address": "MFG Accrington, Hyndburn Road, Accrington",
      "postcode": "BB5 1PY",
      "location": {
        "latitude": 53.7554,
        "longitude": -2.36851
      },
      "prices": {
        "E10": 134.9,
        "E5": 149.9,
        "B7": 144.9,
        "SDV": 159.9
      }
    },
    {
      "site_id": "gcqde1p0sfj2",
      "brand": "Esso",
      "address": "MFG Bearwood, Sandon Road, Bearwood",
      "postcode": "B66 4AB",
      "location": {
        "latitude": 52.476293,
        "longitude": -1.967715
      },
      "prices": {
        "E10": 134.9,
        "E5": 155.9,
        "B7": 144.9,
        "SDV": 165.9
      }
    },
    {
      "site_id": "gcmze9gh6fn9",
      "brand": "Texaco",
      "address": "MFG Bebington, 26 Old Chester Road, Bebington",
      "postcode": "CH63 7LQ",
      "location": {
        "latitude": 53.359963,
        "longitude": -3.006007
      },
      "prices": {
        "E10": 131.9,
        "E5": 149.9,
        "B7": 139.9,
        "SDV": 159.9
      }
    },
    {
      "site_id": "gcmvezz1dhqk",
      "brand": "Texaco",
      "address": "MFG Beechley, Kingsmill Road, Hightown",
      "postcode": "LL13 8NH",
      "location": {
        "latitude": 53.0409,
        "longitude": -2.98956
      },
      "prices": {
        "E10": 133.9,
        "E5": 149.9,
        "B7": 143.9,
        "SDV": 159.9
      }
    },
    {
      "site_id": "gctbxdk7jq2x",
      "brand": "BP",
      "address": "MFG Bickerstaffe, Four Lane Ends, Bickerstaffe / Ormskirk",
      "postcode": "L39 0HF",
      "location": {
        "latitude": 53.5383,
        "longitude": -2.82841
      },
      "prices": {
        "E10": 136.9,
        "E5": 155.9,
        "B7": 146.9,
        "SDV": 165.9
      }
    },
    {
      "site_id": "gcqe14fb42hb",
      "brand": "Texaco",
      "address": "MFG Bilston, Willenhall Road, Bilston",
      "postcode": "WV14 6NP",
      "location": {
        "latitude": 52.5737,
        "longitude": -2.06155
      },
      "prices": {
        "E10": 135.9,
        "E5": 149.9,
        "B7": 144.9,
        "SDV": 159.9
      }
    },
    {
      "site_id": "gcqfp30ntnry",
      "brand": "BP",
      "address": "MFG Binley Woods, Eastern Bypass, Coventry",
      "postcode": "CV3 2ZZ",
      "location": {
        "latitude": 52.389456,
        "longitude": -1.438984
      },
      "prices": {
        "E10": 139.9,
        "E5": 155.9,
        "B7": 149.9,
        "SDV": 165.9
      }
    },
    {
      "site_id": "gcppbtjhknnh",
      "brand": "Esso",
      "address": "MFG Bloxham, South Newington Road, Bloxham Nr Banbury",
      "postcode": "OX15 4QF",
      "location": {
        "latitude": 52.015533,
        "longitude": -1.377231
      },
      "prices": {
        "E10": 134.9,
        "E5": 155.9,
        "B7": 142.9,
        "SDV": 165.9
      }
    },
    {
      "site_id": "gcqdd2frqf4s",
      "brand": "Texaco",
      "address": "MFG Brandhall, 453 Wolverhampton Road, Oldbury",
      "postcode": "B68 8DD",
      "location": {
        "latitude": 52.476079,
        "longitude": -2.007115
      },
      "prices": {
        "E10": 135.9,
        "E5": 149.9,
        "B7": 145.9,
        "SDV": 159.9
      }
    },
    {
      "site_id": "gcq9gmzyzd6p",
      "brand": "Esso",
      "address": "MFG Bridge Hopwood, Birmingham Road, Hopwood",
      "postcode": "B48 7AR",
      "location": {
        "latitude": 52.371625,
        "longitude": -1.955585
      },
      "prices": {
        "E10": 134.9,
        "E5": 155.9,
        "B7": 144.9,
        "SDV": 165.9
      }
    },
    {
      "site_id": "gcjubqxt7wh8",
      "brand": "Texaco",
      "address": "MFG Cardinal, Newport Road, Cardiff",
      "postcode": "CF23 9AD",
      "location": {
        "latitude": 51.4966,
        "longitude": -3.14262
      },
      "prices": {
        "E10": 136.9,
        "E5": 149.9,
        "B7": 142.9
      }
    },
    {
      "site_id": "gcz08h7d6jts",
      "brand": "Jet",
      "address": "MFG Cleadon, Shields Road, Cleadon",
      "postcode": "SR6 7PQ",
      "location": {
        "latitude": 54.955403,
        "longitude": -1.40135
      },
      "prices": {
        "E10": 131.9,
        "E5": 149.9,
        "B7": 141.9,
        "SDV": 159.9
      }
    },
    {
      "site_id": "gcqddeh7t5pf",
      "brand": "Esso",
      "address": "MFG Derry, Londonderry Road, Oldbury",
      "postcode": "B68 9NB",
      "location": {
        "latitude": 52.4878,
        "longitude": -1.99345
      },
      "prices": {
        "E10": 135.9,
        "E5": 155.9,
        "B7": 145.9,
        "SDV": 165.9
      }
    },
    {
      "site_id": "gcx0qj8k65fg",
      "brand": "Jet",
      "address": "MFG Doncaster, Balby Road, Doncaster",
      "postcode": "DN4 0JL",
      "location": {
        "latitude": 53.512408,
        "longitude": -1.142145
      },
      "prices": {
        "E10": 132.9,
        "E5": 149.9,
        "B7": 142.9,
        "SDV": 159.9
      }
    },
    {
      "site_id": "gcnqbdj9xpd7",
      "brand": "Texaco",
      "address": "MFG Elton, Elton Corner, Newnham on Severn",
      "postcode": "GL14 1JQ",
      "location": {
        "latitude": 51.822808,
        "longitude": -2.431108
      },
      "prices": {
        "E10": 132.9,
        "E5": 149.9,
        "B7": 141.9
      }
    },
    {
      "site_id": "gcnz20ju479g",
      "brand": "Texaco",
      "address": "MFG Fosseway, Lower Slaughter, Bourton on the Water",
      "postcode": "GL54 2EY",
      "location": {
        "latitude": 51.90012,
        "longitude": -1.749817
      },
      "prices": {
        "E10": 134.9,
        "E5": 149.9,
        "B7": 146.9,
        "SDV": 159.9
      }
    },
    {
      "site_id": "gcn8d5128xq0",
      "brand": "Esso",
      "address": "MFG Hamworthy, 490A Blandford Road, Hamworthy / Poole",
      "postcode": "BH16 5BN",
      "location": {
        "latitude": 50.729495,
        "longitude": -2.019738
      },
      "prices": {
        "E10": 137.9,
        "E5": 155.9,
        "B7": 145.9,
        "SDV": 165.9
      }
    },
    {
      "site_id": "gcp362dph3pj",
      "brand": "Esso",
      "address": "MFG Havant, 87 Havant Road, Emsworth",
      "postcode": "PO10 7LE",
      "location": {
        "latitude": 50.848681,
        "longitude": -0.952872
      },
      "prices": {
        "E10": 137.9,
        "E5": 155.9,
        "B7": 144.9,
        "SDV": 165.9
      }
    },
    {
      "site_id": "gchqyfpcs1h6",
      "brand": "Texaco",
      "address": "MFG Haverfordwest, Fishguard Road, Haverfordwest",
      "postcode": "SA62 4BT",
      "location": {
        "latitude": 51.822773,
        "longitude": -4.965986
      },
      "prices": {
        "E10": 134.9,
        "E5": 149.9,
        "B7": 142.9,
        "SDV": 159.9
      }
    },
    {
      "site_id": "gcjmj22fmn2h",
      "brand": "Texaco",
      "address": "MFG Laleston, North Side, Laleston Nr Bridgend",
      "postcode": "CF32 0LY",
      "location": {
        "latitude": 51.5057,
        "longitude": -3.63523
      },
      "prices": {
        "E10": 132.9,
        "E5": 149.9,
        "B7": 141.9,
        "SDV": 159.9
      }
    },
    {
      "site_id": "gcw90jq7rsp9",
      "brand": "Texaco",
      "address": "MFG Littleborough, Church Street, Littleborough / Rochdale",
      "postcode": "OL15 8JA",
      "location": {
        "latitude": 53.6427,
        "longitude": -2.10046
      },
      "prices": {
        "E10": 129.9,
        "E5": 149.9,
        "B7": 139.9,
        "SDV": 159.9
      }
    },
    {
      "site_id": "gcjtv45khxfr",
      "brand": "Texaco",
      "address": "MFG Mabon, Mabon Road, Nelson",
      "postcode": "CF46 6PE",
      "location": {
        "latitude": 51.647458,
        "longitude": -3.291239
      },
      "prices": {
        "E10": 134.9,
        "E5": 149.9,
        "B7": 141.9,
        "SDV": 159.9
      }
    },
    {
      "site_id": "gcjjt0f3xxde",
      "brand": "Texaco",
      "address": "MFG Mumbles, Mumbles Road, Swansea",
      "postcode": "SA3 5AS",
      "location": {
        "latitude": 51.596215,
        "longitude": -3.995608
      },
      "prices": {
        "E10": 132.9,
        "E5": 149.9,
        "B7": 141.9,
        "SDV": 159.9
      }
    },
    {
      "site_id": "gcqd8en63qzv",
      "brand": "Texaco",
      "address": "MFG Netherton, Halesowen Road, Netherton",
      "postcode": "DY2 9PS",
      "location": {
        "latitude": 52.487606,
        "longitude": -2.078755
      },
      "prices": {
        "E10": 133.9,
        "E5": 149.9,
        "B7": 142.9,
        "SDV": 159.9
      }
    },
    {
      "site_id": "gcqd2z0eqjcr",
      "brand": "Esso",
      "address": "MFG Overend, Congreaves Road, Cradley Heath / Warley",
      "postcode": "B64 7EA",
      "location": {
        "latitude": 52.4658,
        "longitude": -2.07547
      },
      "prices": {
        "E10": 137.9,
        "E5": 155.9,
        "B7": 146.9,
        "SDV": 165.9
      }
    },
    {
      "site_id": "gcjn1e48rcnh",
      "brand": "Texaco",
      "address": "MFG Panteg, Panteg Road, Panteg",
      "postcode": "SA15 3TF",
      "location": {
        "latitude": 51.696216,
        "longitude": -4.149058
      },
      "prices": {
        "E10": 134.9,
        "E5": 149.9,
        "B7": 142.9,
        "SDV": 159.9
      }
    },
    {
      "site_id": "gcqdefqkwxrt",
      "brand": "Texaco",
      "address": "MFG Parkside, Icknield Port Road, Edgbaston",
      "postcode": "B16 0BJ",
      "location": {
        "latitude": 52.483875,
        "longitude": -1.935708
      },
      "prices": {
        "E10": 133.9,
        "E5": 149.9,
        "B7": 143.9,
        "SDV": 159.9
      }
    },
    {
      "site_id": "gcq6yxfym9jx",
      "brand": "Texaco",
      "address": "MFG Penn, Warstones Road, Penn",
      "postcode": "WV4 4LB",
      "location": {
        "latitude": 52.5583,
        "longitude": -2.171273
      },
      "prices": {
        "E10": 133.9,
        "E5": 149.9,
        "B7": 143.9,
        "SDV": 159.9
      }
    },
    {
      "site_id": "gcjtded20v0r",
      "brand": "Texaco",
      "address": "MFG Porth, North Road, Porth",
      "postcode": "CF39 9SH",
      "location": {
        "latitude": 51.611051,
        "longitude": -3.402639
      },
      "prices": {
        "E10": 134.9,
        "E5": 149.9,
        "B7": 142.9,
        "SDV": 159.9
      }
    },
    {
      "site_id": "gcjubw8j2g3v",
      "brand": "Esso",
      "address": "MFG Premier, Newport Road, Cardiff",
      "postcode": "CF23 9AE",
      "location": {
        "latitude": 51.496586,
        "longitude": -3.142055
      },
      "prices": {
        "E10": 136.9,
        "E5": 155.9,
        "B7": 142.9,
        "SDV": 165.9
      }
    },
    {
      "site_id": "gcmx6myf1373",
      "brand": "BP",
      "address": "MFG Prestatyn, Marine Road, Prestatyn",
      "postcode": "LL19 7HA",
      "location": {
        "latitude": 53.3376,
        "longitude": -3.40742
      },
      "prices": {
        "E10": 136.9,
        "E5": 155.9,
        "B7": 146.9,
        "SDV": 165.9
      }
    },
    {
      "site_id": "gcpwjyq8snfx",
      "brand": "Esso",
      "address": "MFG Primrose, Primrose Hill, Kings Langley",
      "postcode": "WD4 8HR",
      "location": {
        "latitude": 51.714143,
        "longitude": -0.441338
      },
      "prices": {
        "E10": 132.9,
        "E5": 155.9,
        "B7": 141.9,
        "SDV": 165.9
      }
    },
    {
      "site_id": "gcqfm2zw18jd",
      "brand": "Texaco",
      "address": "MFG Radford, Jubilee Crescent, Radford",
      "postcode": "CV6 3EX",
      "location": {
        "latitude": 52.431908,
        "longitude": -1.516728
      },
      "prices": {
        "E10": 135.9,
        "E5": 149.9,
        "B7": 143.9,
        "SDV": 159.9
      }
    },
    {
      "site_id": "gcr450nx88h8",
      "brand": "Esso",
      "address": "MFG Rugby Leicester Road, Leicester Road, Rugby",
      "postcode": "CV21 1DJ",
      "location": {
        "latitude": 52.3841,
        "longitude": -1.26546
      },
      "prices": {
        "E10": 134.9,
        "E5": 155.9,
        "B7": 144.9,
        "SDV": 165.9
      }
    },
    {
      "site_id": "gcp2ztrnd6hd",
      "brand": "Esso",
      "address": "MFG Rose Green, Hewarts Lane, Bognor Regis",
      "postcode": "PO21 3DS",
      "location": {
        "latitude": 50.786802,
        "longitude": -0.715382
      },
      "prices": {
        "E10": 135.9,
        "E5": 155.9,
        "B7": 146.9,
        "SDV": 165.9
      }
    },
    {
      "site_id": "gcpstr8u8cd0",
      "brand": "Esso",
      "address": "MFG Stanwell, Bedfont Road, Stanwell",
      "postcode": "TW19 7LU",
      "location": {
        "latitude": 51.457995,
        "longitude": -0.471347
      },
      "prices": {
        "E10": 137.9,
        "E5": 155.9,
        "B7": 146.9,
        "SDV": 165.9
      }
    },
    {
      "site_id": "gcxnd0mkx9sq",
      "brand": "Jet",
      "address": "MFG Stockton, Norton Road, Stockton-on-Tees",
      "postcode": "TS20 2PN",
      "location": {
        "latitude": 54.582233,
        "longitude": -1.310822
      },
      "prices": {
        "E10": 132.9,
        "E5": 149.9,
        "B7": 142.9,
        "SDV": 159.9
      }
    },
    {
      "site_id": "gcw1cryz74vf",
      "brand": "BP",
      "address": "MFG Tag Lane, Tag Lane, Preston",
      "postcode": "PR2 7AB",
      "location": {
        "latitude": 53.788949,
        "longitude": -2.748162
      },
      "prices": {
        "E10": 134.9,
        "E5": 155.9,
        "B7": 143.9,
        "SDV": 165.9
      }
    },
    {
      "site_id": "gcjjy3v92r45",
      "brand": "Texaco",
      "address": "MFG Tawe, Neath Road, Landore, Swansea",
      "postcode": "SA1 2JG",
      "location": {
        "latitude": 51.645608,
        "longitude": -3.936525
      },
      "prices": {
        "E10": 133.9,
        "E5": 149.9,
        "B7": 142.9,
        "SDV": 159.9
      }
    },
    {
      "site_id": "gcnxc4zuk9b2",
      "brand": "Texaco",
      "address": "MFG Teddington Hands, A435-A438 Roundabout, Teddington Hands",
      "postcode": "GL20 8NE",
      "location": {
        "latitude": 52.00315,
        "longitude": -2.054593
      },
      "prices": {
        "E10": 137.9,
        "E5": 149.9,
        "B7": 145.9,
        "SDV": 159.9
      }
    },
    {
      "site_id": "gcqdbu18vtx7",
      "brand": "Texaco",
      "address": "MFG Tipton, Bloomfield Road, Tipton",
      "postcode": "DY4 9EB",
      "location": {
        "latitude": 52.53678,
        "longitude": -2.07411
      },
      "prices": {
        "E10": 134.9,
        "E5": 149.9,
        "B7": 143.9,
        "SDV": 159.9
      }
    },
    {
      "site_id": "gcqbbq54h45q",
      "brand": "Texaco",
      "address": "MFG Tollhouse, Alcester Road, Stratford Upon Avon",
      "postcode": "CV37 9JJ",
      "location": {
        "latitude": 52.1964,
        "longitude": -1.74253
      },
      "prices": {
        "E10": 137.9,
        "E5": 149.9,
        "B7": 145.9,
        "SDV": 159.9
      }
    },
    {
      "site_id": "gcjtbdjwg42k",
      "brand": "Texaco",
      "address": "MFG Ton Pentre, Ystrad Road, Pentre",
      "postcode": "CF41 7PN",
      "location": {
        "latitude": 51.6479,
        "longitude": -3.48597
      },
      "prices": {
        "E10": 131.9,
        "E5": 149.9,
        "B7": 141.9,
        "SDV": 159.9
      }
    },
    {
      "site_id": "gcjmnpuew7vs",
      "brand": "Texaco",
      "address": "MFG Tondu, Maesteg Road, Tondu",
      "postcode": "CF32 9BT",
      "location": {
        "latitude": 51.5471,
        "longitude": -3.59706
      },
      "prices": {
        "E10": 131.9,
        "E5": 149.9,
        "B7": 141.9
      }
    },
    {
      "site_id": "gcqfr0xcs212",
      "brand": "Esso",
      "address": "MFG Walsgrave, Hinckley Road, Coventry",
      "postcode": "CV2 2QN",
      "location": {
        "latitude": 52.429762,
        "longitude": -1.439368
      },
      "prices": {
        "E10": 135.9,
        "E5": 155.9,
        "B7": 142.9,
        "SDV": 165.9
      }
    },
    {
      "site_id": "gcpmynf52n1t",
      "brand": "Esso",
      "address": "MFG Walters Ash, Main Road, Walters Ash",
      "postcode": "HP14 4XG",
      "location": {
        "latitude": 51.673412,
        "longitude": -0.788267
      },
      "prices": {
        "E10": 134.9,
        "E5": 155.9,
        "B7": 144.9,
        "SDV": 165.9
      }
    },
    {
      "site_id": "gcw1g0qxb8wf",
      "brand": "BP",
      "address": "MFG Walton, Victoria Road, Walton-Le-Dale",
      "postcode": "PR5 4BA",
      "location": {
        "latitude": 53.747824,
        "longitude": -2.671707
      },
      "prices": {
        "E10": 134.9,
        "E5": 155.9,
        "B7": 144.9,
        "SDV": 165.9
      }
    },
    {
      "site_id": "gcpukh17zd6p",
      "brand": "Esso",
      "address": "MFG Wandle, Bishopsford Road, Morden",
      "postcode": "SM4 6AP",
      "location": {
        "latitude": 51.3947,
        "longitude": -0.17374
      },
      "prices": {
        "E10": 135.9,
        "E5": 155.9,
        "B7": 143.9,
        "SDV": 165.9
      }
    },
    {
      "site_id": "gcn9j6x5byzm",
      "brand": "Esso",
      "address": "MFG West Moors, Ringwood Road, West Moors",
      "postcode": "BH22 0AD",
      "location": {
        "latitude": 50.815195,
        "longitude": -1.869007
      },
      "prices": {
        "E10": 136.9,
        "E5": 155.9,
        "B7": 143.9,
        "SDV": 165.9
      }
    },
    {
      "site_id": "gcnk9n9fs9u3",
      "brand": "BP",
      "address": "MFG Wick, 81 London Road, Wick",
      "postcode": "BS30 5SJ",
      "location": {
        "latitude": 51.45216,
        "longitude": -2.41439
      },
      "prices": {
        "E10": 137.9,
        "E5": 155.9,
        "B7": 144.9,
        "SDV": 165.9
      }
    },
    {
      "site_id": "gcpz79r8rwb6",
      "brand": "Esso",
      "address": "MFG Stevenage, Lonsdale Road, Stevenage",
      "postcode": "SG1 5ES",
      "location": {
        "latitude": 51.90636,
        "longitude": -0.187132
      },
      "prices": {
        "E10": 132.9,
        "E5": 155.9,
        "B7": 141.9,
        "SDV": 165.9
      }
    },
    {
      "site_id": "gcpsrwe2dew7",
      "brand": "Esso",
      "address": "MFG Parkhurst, 195 Hurst Road, West Molesey",
      "postcode": "KT8 1SE",
      "location": {
        "latitude": 51.407881,
        "longitude": -0.368956
      },
      "prices": {
        "E10": 134.9,
        "E5": 155.9,
        "B7": 142.9,
        "SDV": 165.9
      }
    },
    {
      "site_id": "u10ujx6qn7eu",
      "brand": "Esso",
      "address": "MFG Birchington, 361 Canterbury Road, Birchington",
      "postcode": "CT7 9TZ",
      "location": {
        "latitude": 51.369,
        "longitude": 1.29975
      },
      "prices": {
        "E10": 131.9,
        "E5": 155.9,
        "B7": 139.9,
        "SDV": 165.9
      }
    },
    {
      "site_id": "gcqq0kcx2k8r",
      "brand": "Shell",
      "address": "MFG Crewe, Bradfield Road, Crewe",
      "postcode": "CW1 3RA",
      "location": {
        "latitude": 53.1133,
        "longitude": -2.44788
      },
      "prices": {
        "E10": 137.9,
        "E5": 159.9,
        "B7": 145.9,
        "SDV": 169.9
      }
    },
    {
      "site_id": "gcj843hwwn89",
      "brand": "Esso",
      "address": "MFG Exmouth, 223 Exeter Road, Exmouth",
      "postcode": "EX8 3DZ",
      "location": {
        "latitude": 50.631644,
        "longitude": -3.41031
      },
      "prices": {
        "E10": 133.9,
        "E5": 155.9,
        "B7": 143.9,
        "SDV": 165.9
      }
    },
    {
      "site_id": "gcqryrcj0psk",
      "brand": "Esso",
      "address": "MFG Levenshulme, Stockport Road, Manchester",
      "postcode": "M19 2RE",
      "location": {
        "latitude": 53.437026,
        "longitude": -2.1849
      },
      "prices": {
        "E10": 135.9,
        "E5": 155.9,
        "B7": 144.9,
        "SDV": 165.9
      }
    },
    {
      "site_id": "gcqrdzwvu2uk",
      "brand": "Esso",
      "address": "MFG Ringway, 155 Stockport Road, Altrincham",
      "postcode": "WA15 7LT",
      "location": {
        "latitude": 53.3918,
        "longitude": -2.33063
      },
      "prices": {
        "E10": 137.9,
        "E5": 155.9,
        "B7": 147.9,
        "SDV": 165.9
      }
    },
    {
      "site_id": "gcqfw387gd2x",
      "brand": "Esso",
      "address": "MFG Bedworth, New Town Road, Bedworth",
      "postcode": "CV12 8QG",
      "location": {
        "latitude": 52.4796,
        "longitude": -1.48266
      },
      "prices": {
        "E10": 135.9,
        "E5": 155.9,
        "B7": 143.9,
        "SDV": 165.9
      }
    },
    {
      "site_id": "u10kk8cg905m",
      "brand": "Esso",
      "address": "MFG Gillingham, 246-254 Nelson Road, Gillingham",
      "postcode": "ME7 4NA",
      "location": {
        "latitude": 51.376792,
        "longitude": 0.551767
      },
      "prices": {
        "E10": 135.9,
        "E5": 155.9,
        "B7": 145.9,
        "SDV": 165.9
      }
    },
    {
      "site_id": "gcrjs3qfttw2",
      "brand": "Esso",
      "address": "MFG Sellers Wood, Camberley Road, Nottingham",
      "postcode": "NG6 8GE",
      "location": {
        "latitude": 53.005372,
        "longitude": -1.209968
      },
      "prices": {
        "E10": 132.9,
        "E5": 155.9,
        "B7": 142.9,
        "SDV": 165.9
      }
    },
    {
      "site_id": "gcny0hw2f9yb",
      "brand": "Esso",
      "address": "MFG Fairford, London Road, Fairford",
      "postcode": "GL7 4DS",
      "location": {
        "latitude": 51.704545,
        "longitude": -1.749113
      },
      "prices": {
        "E10": 136.9,
        "E5": 155.9,
        "B7": 146.9,
        "SDV": 165.9
      }
    },
    {
      "site_id": "u134x13u5snp",
      "brand": "Esso",
      "address": "MFG Oulton Broad, Normanston Drive, Lowestoft",
      "postcode": "NR32 2PY",
      "location": {
        "latitude": 52.478279,
        "longitude": 1.716429
      },
      "prices": {
        "E10": 135.9,
        "E5": 155.9,
        "B7": 145.9,
        "SDV": 165.9
      }
    },
    {
      "site_id": "gcqu6zhvrr3f",
      "brand": "Shell",
      "address": "MFG Horninglow, Derby Road, Burton On Trent",
      "postcode": "DE14 1RY",
      "location": {
        "latitude": 52.817713,
        "longitude": -1.630126
      },
      "prices": {
        "E10": 139.9,
        "E5": 159.9,
        "B7": 149.9,
        "SDV": 169.9
      }
    },
    {
      "site_id": "gcpfg17dx905",
      "brand": "Esso",
      "address": "MFG Ifield, Overdene Drive, Crawley",
      "postcode": "RH11 0JP",
      "location": {
        "latitude": 51.1157,
        "longitude": -0.214598
      },
      "prices": {
        "E10": 132.9,
        "E5": 155.9,
        "B7": 142.9,
        "SDV": 165.9
      }
    },
    {
      "site_id": "gcrr6eu3ks57",
      "brand": "Bp",
      "address": "MFG Moorgate, 48 Moorgate, Retford",
      "postcode": "DN22 6RN",
      "location": {
        "latitude": 53.3265,
        "longitude": -0.93879
      },
      "prices": {
        "E10": 135.9,
        "E5": 155.9,
        "B7": 144.9,
        "SDV": 165.9
      }
    },
    {
      "site_id": "gcr1mb1uh2dy",
      "brand": "Shell",
      "address": "MFG Daventry, Admirals Way, Daventry",
      "postcode": "NN11 4QB",
      "location": {
        "latitude": 52.251667,
        "longitude": -1.150975
      },
      "prices": {
        "E10": 136.9,
        "E5": 159.9,
        "B7": 146.9,
        "SDV": 169.9
      }
    },
    {
      "site_id": "gcpkd6pmjcry",
      "brand": "Esso",
      "address": "MFG Shinfield, 211 Shinfield Road, Reading",
      "postcode": "RG2 8HA",
      "location": {
        "latitude": 51.427868,
        "longitude": -0.945597
      },
      "prices": {
        "E10": 134.9,
        "E5": 155.9,
        "B7": 143.9,
        "SDV": 165.9
      }
    },
    {
      "site_id": "u10hg350ug4y",
      "brand": "Esso",
      "address": "MFG Bexleyheath, 132-136 Long Lane, Bexleyheath",
      "postcode": "DA7 5AH",
      "location": {
        "latitude": 51.4656,
        "longitude": 0.14715
      },
      "prices": {
        "E10": 135.9,
        "E5": 155.9,
        "B7": 145.9,
        "SDV": 165.9
      }
    },
    {
      "site_id": "gcpkw8zvnyh8",
      "brand": "Esso",
      "address": "MFG Binfield Road, 78-82 Binfield Road, Bracknell Forest",
      "postcode": "RG42 2AS",
      "location": {
        "latitude": 51.421026,
        "longitude": -0.758104
      },
      "prices": {
        "E10": 139.9,
        "E5": 155.9,
        "B7": 147.9,
        "SDV": 165.9
      }
    },
    {
      "site_id": "gcq7nku23tk5",
      "brand": "Esso",
      "address": "MFG Compton, Bridgnorth Road, Wolverhampton",
      "postcode": "WV6 8AG",
      "location": {
        "latitude": 52.584758,
        "longitude": -2.180373
      },
      "prices": {
        "E10": 133.9,
        "E5": 155.9,
        "B7": 143.9,
        "SDV": 165.9
      }
    },
    {
      "site_id": "gcpuj3mj3khj",
      "brand": "Esso",
      "address": "MFG Foxley, 14-16 Godstone Road, Purley",
      "postcode": "CR8 2DB",
      "location": {
        "latitude": 51.335915,
        "longitude": -0.113924
      },
      "prices": {
        "E10": 134.9,
        "E5": 155.9,
        "B7": 143.9,
        "SDV": 165.9
      }
    },
    {
      "site_id": "gcmzx3xbtp4d",
      "brand": "Esso",
      "address": "MFG Halewood, 195 Higher Road, Knowsley / Liverpool",
      "postcode": "L26 1UN",
      "location": {
        "latitude": 53.357973,
        "longitude": -2.834598
      },
      "prices": {
        "E10": 132.9,
        "E5": 155.9,
        "B7": 141.9,
        "SDV": 165.9
      }
    },
    {
      "site_id": "gcqrw9myt9xc",
      "brand": "Shell",
      "address": "MFG Bramhall, Ack Lane, Bramhall, Stockport",
      "postcode": "SK7 2BE",
      "location": {
        "latitude": 53.3576,
        "longitude": -2.16715
      },
      "prices": {
        "E10": 137.9,
        "E5": 159.9,
        "B7": 147.9,
        "SDV": 169.9
      }
    },
    {
      "site_id": "gcpv2n49gshe",
      "brand": "Esso",
      "address": "MFG Harrow, 103-105 Pinner Road, Harrow",
      "postcode": "HA1 4EU",
      "location": {
        "latitude": 51.581133,
        "longitude": -0.347973
      },
      "prices": {
        "E10": 136.9,
        "E5": 155.9,
        "B7": 143.9,
        "SDV": 165.9
      }
    },
    {
      "site_id": "u105u8cdcv8v",
      "brand": "Esso",
      "address": "MFG Sevenoaks, 128 Seal Road, Sevenoaks",
      "postcode": "TN14 5AX",
      "location": {
        "latitude": 51.288802,
        "longitude": 0.19989
      },
      "prices": {
        "E10": 138.9,
        "E5": 155.9,
        "B7": 148.9,
        "SDV": 165.9
      }
    },
    {
      "site_id": "gcrjq00pmw80",
      "brand": "Esso",
      "address": "MFG Huntingdon Street, 320 Huntingdon Street, Nottingham",
      "postcode": "NG1 3LH",
      "location": {
        "latitude": 52.955381,
        "longitude": -1.142342
      },
      "prices": {
        "E10": 132.9,
        "E5": 155.9,
        "B7": 142.9,
        "SDV": 165.9
      }
    },
    {
      "site_id": "gcpy2xuu4g3q",
      "brand": "Esso",
      "address": "MFG King William, 2 Beech Road, St Albans",
      "postcode": "AL3 5AS",
      "location": {
        "latitude": 51.76691,
        "longitude": -0.322947
      },
      "prices": {
        "E10": 136.9,
        "E5": 155.9,
        "B7": 146.9,
        "SDV": 165.9
      }
    },
    {
      "site_id": "gcnyw52jpdn8",
      "brand": "Valero",
      "address": "MFG Witney, Welch Way, Witney",
      "postcode": "OX28 6JL",
      "location": {
        "latitude": 51.7863,
        "longitude": -1.49381
      },
      "prices": {
        "E10": 132.9,
        "E5": 149.9,
        "B7": 142.9,
        "SDV": 159.9
      }
    },
    {
      "site_id": "gcpv42d37pg8",
      "brand": "Esso",
      "address": "MFG Acton Vale, 30 The Vale, Ealing",
      "postcode": "W3 7RS",
      "location": {
        "latitude": 51.506909,
        "longitude": -0.249462
      },
      "prices": {
        "E10": 137.9,
        "E5": 155.9,
        "B7": 145.9,
        "SDV": 165.9
      }
    },
    {
      "site_id": "gcphqq1rqjfz",
      "brand": "Esso",
      "address": "MFG Aldermaston, Bath Road, Reading",
      "postcode": "RG7 5HT",
      "location": {
        "latitude": 51.406306,
        "longitude": -1.129614
      },
      "prices": {
        "E10": 135.9,
        "E5": 155.9,
        "B7": 145.9,
        "SDV": 165.9
      }
    },
    {
      "site_id": "gcpwm67ekxpb",
      "brand": "Esso",
      "address": "MFG Apsley, 14 London Road, Hemel Hempstead",
      "postcode": "HP3 9SP",
      "location": {
        "latitude": 51.736588,
        "longitude": -0.467402
      },
      "prices": {
        "E10": 131.9,
        "E5": 155.9,
        "B7": 141.9,
        "SDV": 165.9
      }
    },
    {
      "site_id": "gcqu6rjhmsz6",
      "brand": "Esso",
      "address": "MFG Belvedere, Belvedere Road, Burton On Trent",
      "postcode": "DE13 0RF",
      "location": {
        "latitude": 52.817528,
        "longitude": -1.651823
      },
      "prices": {
        "E10": 135.9,
        "E5": 155.9,
        "B7": 145.9,
        "SDV": 165.9
      }
    },
    {
      "site_id": "gcpkn0k55nk3",
      "brand": "Esso",
      "address": "MFG Blackwater, 86 London Road, Camberley",
      "postcode": "GU17 0AE",
      "location": {
        "latitude": 51.330047,
        "longitude": -0.785388
      },
      "prices": {
        "E10": 135.9,
        "E5": 155.9,
        "B7": 143.9,
        "SDV": 165.9
      }
    },
    {
      "site_id": "gcpryy5sm8en",
      "brand": "Esso",
      "address": "MFG Bleakhall, V6 Grafton Street, Milton Keynes",
      "postcode": "MK6 1LJ",
      "location": {
        "latitude": 52.020997,
        "longitude": -0.75301
      },
      "prices": {
        "E10": 138.9,
        "E5": 155.9,
        "B7": 148.9,
        "SDV": 165.9
      }
    },
    {
      "site_id": "gcn8efjj608w",
      "brand": "Shell",
      "address": "MFG Bournemouth Road, 113-115 Bournemouth Road, Poole",
      "postcode": "BH14 9HR",
      "location": {
        "latitude": 50.724782,
        "longitude": -1.937627
      },
      "prices": {
        "E10": 137.9,
        "E5": 159.9,
        "B7": 146.9,
        "SDV": 169.9
      }
    },
    {
      "site_id": "gcpcuud9d95s",
      "brand": "Esso",
      "address": "MFG Burgess Hill, 173 London Road, Burgess Hill",
      "postcode": "RH15 8LJ",
      "location": {
        "latitude": 50.9576,
        "longitude": -0.139277
      },
      "prices": {
        "E10": 138.9,
        "E5": 155.9,
        "B7": 147.9,
        "SDV": 165.9
      }
    },
    {
      "site_id": "u10h85nwne3f",
      "brand": "Esso",
      "address": "MFG Catford, 360 Verdant Lane, Catford",
      "postcode": "SE6 1TP",
      "location": {
        "latitude": 51.433543,
        "longitude": 0.009208
      },
      "prices": {
        "E10": 135.9,
        "E5": 155.9,
        "B7": 145.9,
        "SDV": 165.9
      }
    },
    {
      "site_id": "gcpynvg3f47r",
      "brand": "Esso",
      "address": "MFG Cheshunt, 47 Flamstead End Road, Waltham Cross",
      "postcode": "EN8 0JA",
      "location": {
        "latitude": 51.711587,
        "longitude": -0.050378
      },